[{"location":"Country Club Christian Church","longitude":-94.6012228,"updated":"2021-05-26 19:03:46","state":"MO","time":"18:30","slug":254,"append":" ","url":"http://district6.wamo-aa.org/meetinfo2.cfm?id=254","name":"Ward Parkway Group","types":["O"],"notes":"","conference_url":"","group_notes":"\t\t\t            ","city":"Kansas City","country":"USA","location_notes":"","postal_code":64113,"address":"6101 Ward Pkwy","day":0,"latitude":39.0169507,"conference_phone":""},{"location":"Country Club Christian Church","longitude":-94.6012228,"updated":"2021-05-26 19:03:46","state":"MO","time":"12:00","slug":259,"append":" ","url":"http://district6.wamo-aa.org/meetinfo2.cfm?id=259","name":"Ward Parkway Group","types":["O"],"notes":"","conference_url":"","group_notes":"\t\t\t            ","city":"Kansas City","country":"USA","location_notes":"","postal_code":64113,"address":"6101 Ward Pkwy","day":5,"latitude":39.0169507,"conference_phone":""},{"location":"Loose Park Rose Garden","longitude":-94.5939374,"updated":"2021-05-26 19:03:46","state":"MO","time":"08:00","slug":262,"append":" ","url":"http://district6.wamo-aa.org/meetinfo2.cfm?id=262","name":"We Are Not a Glum Lot","types":["O","X"],"notes":"","conference_url":"","group_notes":"Rose Garden in summer Garden Center in winter\t\t\t            ","city":"Kansas City","country":"USA","location_notes":"","postal_code":64112,"address":"51st & Wornall,  ","day":0,"latitude":39.0364998,"conference_phone":""},{"location":"Grand Ave. Temple","longitude":-94.5802678,"updated":"2021-05-26 19:03:46","state":"MO","time":"12:15","slug":263,"append":" ","url":"http://district6.wamo-aa.org/meetinfo2.cfm?id=263","name":"Grand Avenue Downtown Nooners","types":["C"],"notes":"","conference_url":"","group_notes":"\t\t\t            ","city":"Kansas City","country":"USA","location_notes":"downstairs","postal_code":64127,"address":"205 E. 9TH ST.","day":1,"latitude":39.1032759,"conference_phone":""},{"location":"Grand Ave. Temple","longitude":-94.5802678,"updated":"2021-05-26 19:03:46","state":"MO","time":"12:15","slug":264,"append":" ","url":"http://district6.wamo-aa.org/meetinfo2.cfm?id=264","name":"Grand Avenue Downtown Nooners","types":["C"],"notes":"","conference_url":"","group_notes":"\t\t\t            ","city":"Kansas City","country":"USA","location_notes":"downstairs","postal_code":64127,"address":"205 E. 9TH ST.","day":2,"latitude":39.1032759,"conference_phone":""},{"location":"Grand Ave. Temple","longitude":-94.5802678,"updated":"2021-05-26 19:03:46","state":"MO","time":"12:15","slug":266,"append":" ","url":"http://district6.wamo-aa.org/meetinfo2.cfm?id=266","name":"Grand Avenue Downtown Nooners","types":["C"],"notes":"","conference_url":"","group_notes":"\t\t\t            ","city":"Kansas City","country":"USA","location_notes":"downstairs","postal_code":64127,"address":"205 E. 9TH ST.","day":4,"latitude":39.1032759,"conference_phone":""},{"location":"Grand Ave. Temple","longitude":-94.5802678,"updated":"2021-05-26 19:03:46","state":"MO","time":"12:15","slug":267,"append":" ","url":"http://district6.wamo-aa.org/meetinfo2.cfm?id=267","name":"Grand Avenue Downtown Nooners","types":["C"],"notes":"","conference_url":"","group_notes":"\t\t\t            ","city":"Kansas City","country":"USA","location_notes":"downstairs","postal_code":64127,"address":"205 E. 9TH ST.","day":5,"latitude":39.1032759,"conference_phone":""},{"location":"Footprints Building","longitude":-94.5724776,"updated":"2021-05-26 19:03:46","state":"MO","time":"14:00","slug":269,"append":" ","url":"http://district6.wamo-aa.org/meetinfo2.cfm?id=269","name":"New Chosen Few","types":["C"],"notes":"","conference_url":"","group_notes":"Masks Required","city":"Kansas City","country":"USA","location_notes":"Come in Red Back Door ","postal_code":64110,"address":"4501 Troost","day":1,"latitude":39.0451032,"conference_phone":""},{"location":"Footprints Building","longitude":-94.5724776,"updated":"2021-05-26 19:03:46","state":"MO","time":"14:00","slug":272,"append":" ","url":"http://district6.wamo-aa.org/meetinfo2.cfm?id=272","name":"New Chosen Few","types":["C"],"notes":"","conference_url":"","group_notes":"Masks Required","city":"Kansas City","country":"USA","location_notes":"Come in Red Back Door ","postal_code":64110,"address":"4501 Troost","day":5,"latitude":39.0451032,"conference_phone":""},{"location":"Footprints Building","longitude":-94.5724776,"updated":"2021-05-26 19:03:46","state":"MO","time":"14:00","slug":274,"append":"    ","url":"http://district6.wamo-aa.org/meetinfo2.cfm?id=274","name":"New Chosen Few","types":["C"],"notes":"","conference_url":"","group_notes":"Masks Required","city":"Kansas City","country":"USA","location_notes":"Come in Red Back Door ","postal_code":64110,"address":"4501 Troost","day":3,"latitude":39.0451032,"conference_phone":""},{"location":"Linwood United Church","longitude":-94.5549478,"updated":"2021-05-26 19:03:46","state":"MO","time":"12:00","slug":284,"append":" TRD","url":"http://district6.wamo-aa.org/meetinfo2.cfm?id=284","name":"Paseo Group","types":["C","onl"],"notes":"","conference_url":"https://us02web.zoom.us/j/5146433808?pwd=bwdUWeCHgaA","group_notes":"Masks Required\t\t            ","city":"Kansas City","country":"USA","location_notes":"Enter on Olive Street side of building","postal_code":64109,"address":"3151 Olive","day":5,"latitude":39.0684957,"conference_phone":""},{"location":"Community Christian Church","longitude":-94.5865056,"updated":"2021-05-26 19:03:46","state":"MO","time":"20:00","slug":367,"append":" ","url":"http://district6.wamo-aa.org/meetinfo2.cfm?id=367","name":"Mustard Seed","types":["C","TC"],"notes":"","conference_url":"","group_notes":"\t\t\t            ","city":"Kansas City","country":"USA","location_notes":"Community Christian Church- Bonfils Chapel ","postal_code":64112,"address":"4601 Main St","day":2,"latitude":39.0432533,"conference_phone":""},{"location":"Community Christian Church","longitude":-94.5865056,"updated":"2021-05-26 19:03:46","state":"MO","time":"19:00","slug":369,"append":" S","url":"http://district6.wamo-aa.org/meetinfo2.cfm?id=369","name":"Mustard Seed","types":["C","TC","ST"],"notes":"","conference_url":"","group_notes":"\t\t\t            ","city":"Kansas City","country":"USA","location_notes":"Community Christian Church- Bonfils Chapel ","postal_code":64112,"address":"4601 Main St","day":5,"latitude":39.0432533,"conference_phone":""},{"location":"Unity Temple,","longitude":-94.5952951,"updated":"2021-05-26 19:03:46","state":"MO","time":"12:00","slug":379,"append":" LIT","url":"http://district6.wamo-aa.org/meetinfo2.cfm?id=379","name":"Unity On the Plaza","types":["O","onl"],"notes":"","conference_url":"https://us04web.zoom.us/j/6631029191?pwd=cnpPUFV3cTYrd29PRGNsMWRQUWlKQT09","group_notes":"\t            ","city":"Kansas City","country":"USA","location_notes":"(Unity Temple, after 6pm use S. door)","postal_code":64112,"address":"707 W. 47th ","day":2,"latitude":39.0420954,"conference_phone":"3126266799,,6631029191#,,#,,987776"},{"location":"Unity Temple,","longitude":-94.5952951,"updated":"2021-05-26 19:03:46","state":"MO","time":"18:00","slug":380,"append":"    ","url":"http://district6.wamo-aa.org/meetinfo2.cfm?id=380","name":"Unity On the Plaza","types":["O","onl"],"notes":"","conference_url":"https://us04web.zoom.us/j/6631029191?pwd=cnpPUFV3cTYrd29PRGNsMWRQUWlKQT09","group_notes":"\t            ","city":"Kansas City","country":"USA","location_notes":"(Unity Temple, after 6pm use S. door)","postal_code":64112,"address":"707 W. 47th ","day":2,"latitude":39.0420954,"conference_phone":"3126266799,,6631029191#,,#,,987776"},{"location":"Unity Temple,","longitude":-94.5952951,"updated":"2021-05-26 19:03:46","state":"MO","time":"20:00","slug":381,"append":"    ","url":"http://district6.wamo-aa.org/meetinfo2.cfm?id=381","name":"Unity On the Plaza","types":["O","onl"],"notes":"","conference_url":"https://us04web.zoom.us/j/6631029191?pwd=cnpPUFV3cTYrd29PRGNsMWRQUWlKQT09","group_notes":"\t            ","city":"Kansas City","country":"USA","location_notes":"(Unity Temple, after 6pm use S. door)","postal_code":64112,"address":"707 W. 47th ","day":2,"latitude":39.0420954,"conference_phone":"3126266799,,6631029191#,,#,,987776"},{"location":"Unity Temple,","longitude":-94.5952951,"updated":"2021-05-26 19:03:46","state":"MO","time":"20:00","slug":396,"append":"    ","url":"http://district6.wamo-aa.org/meetinfo2.cfm?id=396","name":"Unity On the Plaza","types":["O","onl"],"notes":"","conference_url":"https://us04web.zoom.us/j/6631029191?pwd=cnpPUFV3cTYrd29PRGNsMWRQUWlKQT09","group_notes":"\t            ","city":"Kansas City","country":"USA","location_notes":"(Unity Temple, after 6pm use S. door)","postal_code":64112,"address":"707 W. 47th ","day":6,"latitude":39.0420954,"conference_phone":"3126266799,,6631029191#,,#,,987776"},{"location":"Grand Ave. Temple","longitude":-94.5802678,"updated":"2021-05-26 19:03:46","state":"MO","time":"12:15","slug":398,"append":" ","url":"http://district6.wamo-aa.org/meetinfo2.cfm?id=398","name":"Grand Avenue Downtown Nooners","types":["C"],"notes":"","conference_url":"","group_notes":"\t\t\t            ","city":"Kansas City","country":"USA","location_notes":"downstairs","postal_code":64127,"address":"205 E. 9TH ST.","day":3,"latitude":39.1032759,"conference_phone":""},{"location":"","longitude":-94.5937629,"updated":"2021-05-26 19:03:46","state":"MO","time":"18:00","slug":420,"append":"    ","url":"http://district6.wamo-aa.org/meetinfo2.cfm?id=420","name":"Kansas City Group #1","types":["C","X"],"notes":"masks required","conference_url":"","group_notes":"Hall is still open from 11:30am to 7:30 Tuesday & Thursdays <br> other days open at 9am - MASKS REQUIRED","city":"Kansas City","country":"USA","location_notes":"(3 doors off Wornall)","postal_code":64114,"address":"311 W. 80 Terrace ","day":0,"latitude":38.9820752,"conference_phone":""},{"location":"","longitude":-94.5937629,"updated":"2021-05-26 19:03:46","state":"MO","time":"12:00","slug":424,"append":"    ","url":"http://district6.wamo-aa.org/meetinfo2.cfm?id=424","name":"Kansas City Group #1","types":["C","X"],"notes":"masks required","conference_url":"","group_notes":"Hall is still open from 11:30am to 7:30 Tuesday & Thursdays <br> other days open at 9am - MASKS REQUIRED","city":"Kansas City","country":"USA","location_notes":"(3 doors off Wornall)","postal_code":64114,"address":"311 W. 80 Terrace ","day":2,"latitude":38.9820752,"conference_phone":""},{"location":"","longitude":-94.5937629,"updated":"2021-05-26 19:03:46","state":"MO","time":"12:00","slug":429,"append":"    ","url":"http://district6.wamo-aa.org/meetinfo2.cfm?id=429","name":"Kansas City Group #1","types":["C","X"],"notes":"masks required","conference_url":"","group_notes":"Hall is still open from 11:30am to 7:30 Tuesday & Thursdays <br> other days open at 9am - MASKS REQUIRED","city":"Kansas City","country":"USA","location_notes":"(3 doors off Wornall)","postal_code":64114,"address":"311 W. 80 Terrace ","day":4,"latitude":38.9820752,"conference_phone":""},{"location":"","longitude":-94.5937629,"updated":"2021-05-26 19:03:46","state":"MO","time":"09:00","slug":433,"append":"    ","url":"http://district6.wamo-aa.org/meetinfo2.cfm?id=433","name":"Kansas City Group #1","types":["C","X"],"notes":"masks required","conference_url":"","group_notes":"Hall is still open from 11:30am to 7:30 Tuesday & Thursdays <br> other days open at 9am - MASKS REQUIRED","city":"Kansas City","country":"USA","location_notes":"(3 doors off Wornall)","postal_code":64114,"address":"311 W. 80 Terrace ","day":6,"latitude":38.9820752,"conference_phone":""},{"location":"Covenant Presbyterian Church","longitude":-94.5413681,"updated":"2021-05-26 19:03:46","state":"MO","time":"20:00","slug":438,"append":" BB","url":"http://district6.wamo-aa.org/meetinfo2.cfm?id=438","name":"New Fellowship","types":["C","B"],"notes":"","conference_url":"","group_notes":"\t\t\t            ","city":"Kansas City","country":"USA","location_notes":"2nd floor- ring bell after 8:30pm","postal_code":64130,"address":"5931 Swope Parkway","day":4,"latitude":39.0174737,"conference_phone":""},{"location":"St Mark Hope and Peace Lutheran Church","longitude":-94.5726389,"updated":"2021-05-26 19:03:46","state":"MO","time":"20:00","slug":445,"append":" S","url":"http://district6.wamo-aa.org/meetinfo2.cfm?id=445","name":"We Are One","types":["C","ST"],"notes":"","conference_url":"","group_notes":"\t\t\t            ","city":"Kansas City","country":"USA","location_notes":"","postal_code":64110,"address":"3800 Troost Ave ","day":3,"latitude":39.0577720,"conference_phone":""},{"location":"St Mark Hope and Peace Lutheran Church","longitude":-94.5726389,"updated":"2021-05-26 19:03:46","state":"MO","time":"10:00","slug":446,"append":" S","url":"http://district6.wamo-aa.org/meetinfo2.cfm?id=446","name":"We Are One","types":["C","ST"],"notes":"","conference_url":"","group_notes":"\t\t\t            ","city":"Kansas City","country":"USA","location_notes":"","postal_code":64110,"address":"3800 Troost Ave ","day":4,"latitude":39.0577720,"conference_phone":""},{"location":"St Mark Hope and Peace Lutheran Church","longitude":-94.5726389,"updated":"2021-05-26 19:03:46","state":"MO","time":"20:00","slug":447,"append":" NEW","url":"http://district6.wamo-aa.org/meetinfo2.cfm?id=447","name":"We Are One","types":["C"],"notes":"","conference_url":"","group_notes":"\t\t\t            ","city":"Kansas City","country":"USA","location_notes":"","postal_code":64110,"address":"3800 Troost Ave ","day":4,"latitude":39.0577720,"conference_phone":""},{"location":"St Mark Hope and Peace Lutheran Church","longitude":-94.5726389,"updated":"2021-05-26 19:03:46","state":"MO","time":"10:00","slug":448,"append":" S","url":"http://district6.wamo-aa.org/meetinfo2.cfm?id=448","name":"We Are One","types":["C","ST"],"notes":"","conference_url":"","group_notes":"\t\t\t            ","city":"Kansas City","country":"USA","location_notes":"","postal_code":64110,"address":"3800 Troost Ave ","day":5,"latitude":39.0577720,"conference_phone":""},{"location":"St Mark Hope and Peace Lutheran Church","longitude":-94.5726389,"updated":"2021-05-26 19:03:46","state":"MO","time":"10:00","slug":450,"append":" TRD","url":"http://district6.wamo-aa.org/meetinfo2.cfm?id=450","name":"We Are One","types":["C"],"notes":"","conference_url":"","group_notes":"\t\t\t            ","city":"Kansas City","country":"USA","location_notes":"","postal_code":64110,"address":"3800 Troost Ave ","day":6,"latitude":39.0577720,"conference_phone":""},{"location":"St Mark Hope and Peace Lutheran Church","longitude":-94.5726389,"updated":"2021-05-26 19:03:46","state":"MO","time":"20:00","slug":451,"append":" ","url":"http://district6.wamo-aa.org/meetinfo2.cfm?id=451","name":"We Are One","types":["O"],"notes":"","conference_url":"","group_notes":"\t\t\t            ","city":"Kansas City","country":"USA","location_notes":"","postal_code":64110,"address":"3800 Troost Ave ","day":6,"latitude":39.0577720,"conference_phone":""},{"location":"","longitude":-94.6045094,"updated":"2021-05-26 19:03:46","state":"MO","time":"17:30","slug":571,"append":"M LIT","url":"http://district6.wamo-aa.org/meetinfo2.cfm?id=571","name":"Performance III (P3) (MEN ONLY)","types":["C"],"notes":"","conference_url":"","group_notes":"\t\t\t            ","city":"Kansas City","country":"USA","location_notes":"Little White Building Next to  Roanoke Baptist Church","postal_code":64111,"address":"1606 W. 40th ","day":4,"latitude":39.0554847,"conference_phone":""},{"location":"Country Club Christian Church","longitude":-94.6012228,"updated":"2021-05-26 19:03:46","state":"MO","time":"18:30","slug":577,"append":" BB","url":"http://district6.wamo-aa.org/meetinfo2.cfm?id=577","name":"Ward Parkway Group","types":["C","B"],"notes":"","conference_url":"","group_notes":"\t\t\t            ","city":"Kansas City","country":"USA","location_notes":"","postal_code":64113,"address":"6101 Ward Pkwy","day":1,"latitude":39.0169507,"conference_phone":""},{"location":"Country Club Christian Church","longitude":-94.6012228,"updated":"2021-05-26 19:03:46","state":"MO","time":"18:30","slug":579,"append":" LIT","url":"http://district6.wamo-aa.org/meetinfo2.cfm?id=579","name":"Ward Parkway Group","types":["C"],"notes":"","conference_url":"","group_notes":"\t\t\t            ","city":"Kansas City","country":"USA","location_notes":"","postal_code":64113,"address":"6101 Ward Pkwy","day":4,"latitude":39.0169507,"conference_phone":""},{"location":"","longitude":-94.5937629,"updated":"2021-05-26 19:03:46","state":"MO","time":"18:00","slug":649,"append":" ST","url":"http://district6.wamo-aa.org/meetinfo2.cfm?id=649","name":"Kansas City Group #1","types":["C","X","ST","TR"],"notes":"masks required","conference_url":"","group_notes":"Hall is still open from 11:30am to 7:30 Tuesday & Thursdays <br> other days open at 9am - MASKS REQUIRED","city":"Kansas City","country":"USA","location_notes":"(3 doors off Wornall)","postal_code":64114,"address":"311 W. 80 Terrace ","day":1,"latitude":38.9820752,"conference_phone":""},{"location":"","longitude":-94.5937629,"updated":"2021-05-26 19:03:46","state":"MO","time":"13:30","slug":655,"append":" LIT","url":"http://district6.wamo-aa.org/meetinfo2.cfm?id=655","name":"Kansas City Group #1","types":["C","X"],"notes":"masks required","conference_url":"","group_notes":"Hall is still open from 11:30am to 7:30 Tuesday & Thursdays <br> other days open at 9am - MASKS REQUIRED","city":"Kansas City","country":"USA","location_notes":"(3 doors off Wornall)","postal_code":64114,"address":"311 W. 80 Terrace ","day":6,"latitude":38.9820752,"conference_phone":""},{"location":"","longitude":-94.5937629,"updated":"2021-05-26 19:03:46","state":"MO","time":"18:00","slug":656,"append":" LIT","url":"http://district6.wamo-aa.org/meetinfo2.cfm?id=656","name":"Kansas City Group #1","types":["C","X"],"notes":"masks required","conference_url":"","group_notes":"Hall is still open from 11:30am to 7:30 Tuesday & Thursdays <br> other days open at 9am - MASKS REQUIRED","city":"Kansas City","country":"USA","location_notes":"(3 doors off Wornall)","postal_code":64114,"address":"311 W. 80 Terrace ","day":6,"latitude":38.9820752,"conference_phone":""},{"location":"Covenant Presbyterian Church","longitude":-94.5413681,"updated":"2021-05-26 19:03:46","state":"MO","time":"17:00","slug":665,"append":" LIT","url":"http://district6.wamo-aa.org/meetinfo2.cfm?id=665","name":"New Fellowship","types":["O"],"notes":"","conference_url":"","group_notes":"\t\t\t            ","city":"Kansas City","country":"USA","location_notes":"2nd floor- ring bell after 8:30pm","postal_code":64130,"address":"5931 Swope Parkway","day":0,"latitude":39.0174737,"conference_phone":""},{"location":"Unity Temple,","longitude":-94.5952951,"updated":"2021-05-26 19:03:46","state":"MO","time":"12:00","slug":683,"append":"    ","url":"http://district6.wamo-aa.org/meetinfo2.cfm?id=683","name":"Unity On the Plaza","types":["C","onl"],"notes":"","conference_url":"https://us04web.zoom.us/j/6631029191?pwd=cnpPUFV3cTYrd29PRGNsMWRQUWlKQT09","group_notes":"\t            ","city":"Kansas City","country":"USA","location_notes":"(Unity Temple, after 6pm use S. door)","postal_code":64112,"address":"707 W. 47th ","day":1,"latitude":39.0420954,"conference_phone":"3126266799,,6631029191#,,#,,987776"},{"location":"Unity Temple,","longitude":-94.5952951,"updated":"2021-05-26 19:03:46","state":"MO","time":"18:00","slug":684,"append":"    ","url":"http://district6.wamo-aa.org/meetinfo2.cfm?id=684","name":"Unity On the Plaza","types":["C","onl"],"notes":"","conference_url":"https://us04web.zoom.us/j/6631029191?pwd=cnpPUFV3cTYrd29PRGNsMWRQUWlKQT09","group_notes":"\t            ","city":"Kansas City","country":"USA","location_notes":"(Unity Temple, after 6pm use S. door)","postal_code":64112,"address":"707 W. 47th ","day":1,"latitude":39.0420954,"conference_phone":"3126266799,,6631029191#,,#,,987776"},{"location":"Unity Temple,","longitude":-94.5952951,"updated":"2021-05-26 19:03:46","state":"MO","time":"20:00","slug":685,"append":"    ","url":"http://district6.wamo-aa.org/meetinfo2.cfm?id=685","name":"Unity On the Plaza","types":["O","onl"],"notes":"","conference_url":"https://us04web.zoom.us/j/6631029191?pwd=cnpPUFV3cTYrd29PRGNsMWRQUWlKQT09","group_notes":"\t            ","city":"Kansas City","country":"USA","location_notes":"(Unity Temple, after 6pm use S. door)","postal_code":64112,"address":"707 W. 47th ","day":1,"latitude":39.0420954,"conference_phone":"3126266799,,6631029191#,,#,,987776"},{"location":"Unity Temple,","longitude":-94.5952951,"updated":"2021-05-26 19:03:46","state":"MO","time":"12:00","slug":686,"append":"    ","url":"http://district6.wamo-aa.org/meetinfo2.cfm?id=686","name":"Unity On the Plaza","types":["C","onl"],"notes":"","conference_url":"https://us04web.zoom.us/j/6631029191?pwd=cnpPUFV3cTYrd29PRGNsMWRQUWlKQT09","group_notes":"\t            ","city":"Kansas City","country":"USA","location_notes":"(Unity Temple, after 6pm use S. door)","postal_code":64112,"address":"707 W. 47th ","day":3,"latitude":39.0420954,"conference_phone":"3126266799,,6631029191#,,#,,987776"},{"location":"Unity Temple,","longitude":-94.5952951,"updated":"2021-05-26 19:03:46","state":"MO","time":"18:00","slug":687,"append":"    ","url":"http://district6.wamo-aa.org/meetinfo2.cfm?id=687","name":"Unity On the Plaza","types":["C","onl"],"notes":"","conference_url":"https://us04web.zoom.us/j/6631029191?pwd=cnpPUFV3cTYrd29PRGNsMWRQUWlKQT09","group_notes":"\t            ","city":"Kansas City","country":"USA","location_notes":"(Unity Temple, after 6pm use S. door)","postal_code":64112,"address":"707 W. 47th ","day":3,"latitude":39.0420954,"conference_phone":"3126266799,,6631029191#,,#,,987776"},{"location":"Unity Temple,","longitude":-94.5952951,"updated":"2021-05-26 19:03:46","state":"MO","time":"20:00","slug":688,"append":"    ","url":"http://district6.wamo-aa.org/meetinfo2.cfm?id=688","name":"Unity On the Plaza","types":["C","onl"],"notes":"","conference_url":"https://us04web.zoom.us/j/6631029191?pwd=cnpPUFV3cTYrd29PRGNsMWRQUWlKQT09","group_notes":"\t            ","city":"Kansas City","country":"USA","location_notes":"(Unity Temple, after 6pm use S. door)","postal_code":64112,"address":"707 W. 47th ","day":3,"latitude":39.0420954,"conference_phone":"3126266799,,6631029191#,,#,,987776"},{"location":"Unity Temple,","longitude":-94.5952951,"updated":"2021-05-26 19:03:46","state":"MO","time":"12:00","slug":689,"append":"    ","url":"http://district6.wamo-aa.org/meetinfo2.cfm?id=689","name":"Unity On the Plaza","types":["C","onl"],"notes":"","conference_url":"https://us04web.zoom.us/j/6631029191?pwd=cnpPUFV3cTYrd29PRGNsMWRQUWlKQT09","group_notes":"\t            ","city":"Kansas City","country":"USA","location_notes":"(Unity Temple, after 6pm use S. door)","postal_code":64112,"address":"707 W. 47th ","day":4,"latitude":39.0420954,"conference_phone":"3126266799,,6631029191#,,#,,987776"},{"location":"Unity Temple,","longitude":-94.5952951,"updated":"2021-05-26 19:03:46","state":"MO","time":"18:00","slug":690,"append":"    ","url":"http://district6.wamo-aa.org/meetinfo2.cfm?id=690","name":"Unity On the Plaza","types":["C","onl"],"notes":"","conference_url":"https://us04web.zoom.us/j/6631029191?pwd=cnpPUFV3cTYrd29PRGNsMWRQUWlKQT09","group_notes":"\t            ","city":"Kansas City","country":"USA","location_notes":"(Unity Temple, after 6pm use S. door)","postal_code":64112,"address":"707 W. 47th ","day":4,"latitude":39.0420954,"conference_phone":"3126266799,,6631029191#,,#,,987776"},{"location":"Unity Temple,","longitude":-94.5952951,"updated":"2021-05-26 19:03:46","state":"MO","time":"20:00","slug":691,"append":"    ","url":"http://district6.wamo-aa.org/meetinfo2.cfm?id=691","name":"Unity On the Plaza","types":["C","onl"],"notes":"","conference_url":"https://us04web.zoom.us/j/6631029191?pwd=cnpPUFV3cTYrd29PRGNsMWRQUWlKQT09","group_notes":"\t            ","city":"Kansas City","country":"USA","location_notes":"(Unity Temple, after 6pm use S. door)","postal_code":64112,"address":"707 W. 47th ","day":4,"latitude":39.0420954,"conference_phone":"3126266799,,6631029191#,,#,,987776"},{"location":"Unity Temple,","longitude":-94.5952951,"updated":"2021-05-26 19:03:46","state":"MO","time":"12:00","slug":693,"append":"    ","url":"http://district6.wamo-aa.org/meetinfo2.cfm?id=693","name":"Unity On the Plaza","types":["C","onl"],"notes":"","conference_url":"https://us04web.zoom.us/j/6631029191?pwd=cnpPUFV3cTYrd29PRGNsMWRQUWlKQT09","group_notes":"\t            ","city":"Kansas City","country":"USA","location_notes":"(Unity Temple, after 6pm use S. door)","postal_code":64112,"address":"707 W. 47th ","day":5,"latitude":39.0420954,"conference_phone":"3126266799,,6631029191#,,#,,987776"},{"location":"Unity Temple,","longitude":-94.5952951,"updated":"2021-05-26 19:03:46","state":"MO","time":"18:00","slug":694,"append":"    ","url":"http://district6.wamo-aa.org/meetinfo2.cfm?id=694","name":"Unity On the Plaza","types":["C","onl"],"notes":"","conference_url":"https://us04web.zoom.us/j/6631029191?pwd=cnpPUFV3cTYrd29PRGNsMWRQUWlKQT09","group_notes":"\t            ","city":"Kansas City","country":"USA","location_notes":"(Unity Temple, after 6pm use S. door)","postal_code":64112,"address":"707 W. 47th ","day":5,"latitude":39.0420954,"conference_phone":"3126266799,,6631029191#,,#,,987776"},{"location":"Unity Temple,","longitude":-94.5952951,"updated":"2021-05-26 19:03:46","state":"MO","time":"20:00","slug":695,"append":"    ","url":"http://district6.wamo-aa.org/meetinfo2.cfm?id=695","name":"Unity On the Plaza","types":["C","onl"],"notes":"","conference_url":"https://us04web.zoom.us/j/6631029191?pwd=cnpPUFV3cTYrd29PRGNsMWRQUWlKQT09","group_notes":"\t            ","city":"Kansas City","country":"USA","location_notes":"(Unity Temple, after 6pm use S. door)","postal_code":64112,"address":"707 W. 47th ","day":5,"latitude":39.0420954,"conference_phone":"3126266799,,6631029191#,,#,,987776"},{"location":"Unity Temple,","longitude":-94.5952951,"updated":"2021-05-26 19:03:46","state":"MO","time":"08:00","slug":696,"append":"    ","url":"http://district6.wamo-aa.org/meetinfo2.cfm?id=696","name":"Unity On the Plaza","types":["C","onl"],"notes":"","conference_url":"https://us04web.zoom.us/j/6631029191?pwd=cnpPUFV3cTYrd29PRGNsMWRQUWlKQT09","group_notes":"\t            ","city":"Kansas City","country":"USA","location_notes":"(Unity Temple, after 6pm use S. door)","postal_code":64112,"address":"707 W. 47th ","day":6,"latitude":39.0420954,"conference_phone":"3126266799,,6631029191#,,#,,987776"},{"location":"Unity Temple,","longitude":-94.5952951,"updated":"2021-05-26 19:03:46","state":"MO","time":"11:00","slug":697,"append":"    ","url":"http://district6.wamo-aa.org/meetinfo2.cfm?id=697","name":"Unity On the Plaza","types":["C","onl"],"notes":"","conference_url":"https://us04web.zoom.us/j/6631029191?pwd=cnpPUFV3cTYrd29PRGNsMWRQUWlKQT09","group_notes":"\t            ","city":"Kansas City","country":"USA","location_notes":"(Unity Temple, after 6pm use S. door)","postal_code":64112,"address":"707 W. 47th ","day":6,"latitude":39.0420954,"conference_phone":"3126266799,,6631029191#,,#,,987776"},{"location":"Unity Temple,","longitude":-94.5952951,"updated":"2021-05-26 19:03:46","state":"MO","time":"18:00","slug":698,"append":"    ","url":"http://district6.wamo-aa.org/meetinfo2.cfm?id=698","name":"Unity On the Plaza","types":["C","onl"],"notes":"","conference_url":"https://us04web.zoom.us/j/6631029191?pwd=cnpPUFV3cTYrd29PRGNsMWRQUWlKQT09","group_notes":"\t            ","city":"Kansas City","country":"USA","location_notes":"(Unity Temple, after 6pm use S. door)","postal_code":64112,"address":"707 W. 47th ","day":0,"latitude":39.0420954,"conference_phone":"3126266799,,6631029191#,,#,,987776"},{"location":"Unity Temple,","longitude":-94.5952951,"updated":"2021-05-26 19:03:46","state":"MO","time":"20:00","slug":699,"append":"    ","url":"http://district6.wamo-aa.org/meetinfo2.cfm?id=699","name":"Unity On the Plaza","types":["C","onl"],"notes":"","conference_url":"https://us04web.zoom.us/j/6631029191?pwd=cnpPUFV3cTYrd29PRGNsMWRQUWlKQT09","group_notes":"\t            ","city":"Kansas City","country":"USA","location_notes":"(Unity Temple, after 6pm use S. door)","postal_code":64112,"address":"707 W. 47th ","day":0,"latitude":39.0420954,"conference_phone":"3126266799,,6631029191#,,#,,987776"},{"location":"Country Club Christian Church","longitude":-94.6012228,"updated":"2021-05-26 19:03:46","state":"MO","time":"18:30","slug":703,"append":" S","url":"http://district6.wamo-aa.org/meetinfo2.cfm?id=703","name":"Ward Parkway Group","types":["C","ST"],"notes":"","conference_url":"","group_notes":"\t\t\t            ","city":"Kansas City","country":"USA","location_notes":"","postal_code":64113,"address":"6101 Ward Pkwy","day":2,"latitude":39.0169507,"conference_phone":""},{"location":"Country Club Christian Church","longitude":-94.6012228,"updated":"2021-05-26 19:03:46","state":"MO","time":"18:30","slug":704,"append":" ","url":"http://district6.wamo-aa.org/meetinfo2.cfm?id=704","name":"Ward Parkway Group","types":["C"],"notes":"","conference_url":"","group_notes":"\t\t\t            ","city":"Kansas City","country":"USA","location_notes":"","postal_code":64113,"address":"6101 Ward Pkwy","day":3,"latitude":39.0169507,"conference_phone":""},{"location":"Country Club Christian Church","longitude":-94.6012228,"updated":"2021-05-26 19:03:46","state":"MO","time":"09:00","slug":705,"append":" ","url":"http://district6.wamo-aa.org/meetinfo2.cfm?id=705","name":"Ward Parkway Group","types":["C"],"notes":"","conference_url":"","group_notes":"\t\t\t            ","city":"Kansas City","country":"USA","location_notes":"","postal_code":64113,"address":"6101 Ward Pkwy","day":6,"latitude":39.0169507,"conference_phone":""},{"location":"Country Club Christian Church","longitude":-94.6012228,"updated":"2021-05-26 19:03:46","state":"MO","time":"12:00","slug":706,"append":" ","url":"http://district6.wamo-aa.org/meetinfo2.cfm?id=706","name":"Ward Parkway Group","types":["C"],"notes":"","conference_url":"","group_notes":"\t\t\t            ","city":"Kansas City","country":"USA","location_notes":"","postal_code":64113,"address":"6101 Ward Pkwy","day":3,"latitude":39.0169507,"conference_phone":""},{"location":"St Mark Hope and Peace Lutheran Church","longitude":-94.5726389,"updated":"2021-05-26 19:03:46","state":"MO","time":"20:00","slug":709,"append":" ","url":"http://district6.wamo-aa.org/meetinfo2.cfm?id=709","name":"We Are One","types":["C"],"notes":"","conference_url":"","group_notes":"\t\t\t            ","city":"Kansas City","country":"USA","location_notes":"","postal_code":64110,"address":"3800 Troost Ave ","day":5,"latitude":39.0577720,"conference_phone":""},{"location":"Men's Recovery House ","longitude":-94.5660482,"updated":"2021-05-26 19:03:46","state":"MO","time":"08:00","slug":720,"append":" ","url":"http://district6.wamo-aa.org/meetinfo2.cfm?id=720","name":"Welcome House","types":["O"],"notes":"","conference_url":"","group_notes":"No meeting last Thursday of the month\t\t\t            ","city":"Kansas City","country":"USA","location_notes":"","postal_code":64108,"address":"1414 E. 27TH Street","day":0,"latitude":39.0778628,"conference_phone":""},{"location":"","longitude":-94.6045094,"updated":"2021-05-26 19:03:46","state":"MO","time":"20:00","slug":6544,"append":"M S","url":"http://district6.wamo-aa.org/meetinfo2.cfm?id=6544","name":"Performance III (P3) (MEN ONLY)","types":["C","ST"],"notes":"","conference_url":"","group_notes":"\t\t\t            ","city":"Kansas City","country":"USA","location_notes":"Little White Building Next to  Roanoke Baptist Church","postal_code":64111,"address":"1606 W. 40th ","day":2,"latitude":39.0554847,"conference_phone":""},{"location":"Unity Temple,","longitude":-94.5952951,"updated":"2021-05-26 19:03:46","state":"MO","time":"12:00","slug":6550,"append":" none","url":"http://district6.wamo-aa.org/meetinfo2.cfm?id=6550","name":"Unity On the Plaza","types":["C"],"notes":"","conference_url":"","group_notes":"\t            ","city":"Kansas City","country":"USA","location_notes":"(Unity Temple, after 6pm use S. door)","postal_code":64112,"address":"707 W. 47th ","day":2,"latitude":39.0420954,"conference_phone":""},{"location":"Linwood United Church","longitude":-94.5549478,"updated":"2021-05-26 19:03:46","state":"MO","time":"12:00","slug":4085,"append":"    ","url":"http://district6.wamo-aa.org/meetinfo2.cfm?id=4085","name":"Paseo Group","types":["O","onl"],"notes":"","conference_url":"https://us02web.zoom.us/j/5146433808?pwd=bwdUWeCHgaA","group_notes":"Masks Required\t\t            ","city":"Kansas City","country":"USA","location_notes":"Enter on Olive Street side of building","postal_code":64109,"address":"3151 Olive","day":2,"latitude":39.0684957,"conference_phone":""},{"location":"Linwood United Church","longitude":-94.5549478,"updated":"2021-05-26 19:03:46","state":"MO","time":"12:00","slug":4087,"append":"    ","url":"http://district6.wamo-aa.org/meetinfo2.cfm?id=4087","name":"Paseo Group","types":["O","onl"],"notes":"","conference_url":"https://us02web.zoom.us/j/5146433808?pwd=bwdUWeCHgaA","group_notes":"Masks Required\t\t            ","city":"Kansas City","country":"USA","location_notes":"Enter on Olive Street side of building","postal_code":64109,"address":"3151 Olive","day":3,"latitude":39.0684957,"conference_phone":""},{"location":"Linwood United Church","longitude":-94.5549478,"updated":"2021-05-26 19:03:46","state":"MO","time":"12:00","slug":4090,"append":"    ","url":"http://district6.wamo-aa.org/meetinfo2.cfm?id=4090","name":"Paseo Group","types":["O","onl"],"notes":"","conference_url":"https://us02web.zoom.us/j/5146433808?pwd=bwdUWeCHgaA","group_notes":"Masks Required\t\t            ","city":"Kansas City","country":"USA","location_notes":"Enter on Olive Street side of building","postal_code":64109,"address":"3151 Olive","day":4,"latitude":39.0684957,"conference_phone":""},{"location":"","longitude":-94.5844899,"updated":"2021-05-26 19:03:46","state":"MO","time":"19:00","slug":5828,"append":"    ","url":"http://district6.wamo-aa.org/meetinfo2.cfm?id=5828","name":"We Agnostics","types":["C","TC","onl"],"notes":"","conference_url":"https://zoom.us/j/547214838","group_notes":"also 10am Sunday KU Med cafeteria is suspended until further notice\t\t            ","city":"Kansas City","country":"USA","location_notes":"","postal_code":64111,"address":"4501 Walnut Street","day":2,"latitude":39.0459327,"conference_phone":"+13126266799,,547214838#"},{"location":"","longitude":-94.5844899,"updated":"2021-05-26 19:03:46","state":"MO","time":"12:00","slug":4506,"append":"    ","url":"http://district6.wamo-aa.org/meetinfo2.cfm?id=4506","name":"We Agnostics","types":["O","TC","onl"],"notes":"","conference_url":"https://zoom.us/j/436758314","group_notes":"also 10am Sunday KU Med cafeteria is suspended until further notice\t\t            ","city":"Kansas City","country":"USA","location_notes":"","postal_code":64111,"address":"4501 Walnut Street","day":6,"latitude":39.0459327,"conference_phone":"+13126266799,,436758314#"},{"location":"","longitude":-94.5912288,"updated":"2021-05-26 19:03:46","state":"MO","time":"18:00","slug":4549,"append":" ST","url":"http://district6.wamo-aa.org/meetinfo2.cfm?id=4549","name":"24 & 7","types":["C","X","onl","ST","TR"],"notes":"","conference_url":"https://us02web.zoom.us/j/85291935709?pwd=c05XUnFRckNSaUIzeVNjMkRFNnRFUT09","group_notes":"Friday meeting in person masks required","city":"Kansas City","country":"USA","location_notes":"Country Club Congregational United Church of Christ enter thru side door","postal_code":64113,"address":"205 W 65th St","day":1,"latitude":39.0100287,"conference_phone":"+1 312 626 6799,,665321214#"},{"location":"","longitude":-94.5912288,"updated":"2021-05-26 19:03:46","state":"MO","time":"18:00","slug":4551,"append":" BB","url":"http://district6.wamo-aa.org/meetinfo2.cfm?id=4551","name":"24 & 7","types":["C","X","onl","B"],"notes":"","conference_url":"https://us02web.zoom.us/j/82811142928 ","group_notes":"Friday meeting in person masks required","city":"Kansas City","country":"USA","location_notes":"Country Club Congregational United Church of Christ enter thru side door","postal_code":64113,"address":"205 W 65th St","day":3,"latitude":39.0100287,"conference_phone":"+13126266799,,82811142928#"},{"location":"","longitude":-94.5912288,"updated":"2021-05-26 19:03:46","state":"MO","time":"18:00","slug":4553,"append":" LIT","url":"http://district6.wamo-aa.org/meetinfo2.cfm?id=4553","name":"24 & 7","types":["C","X"],"notes":"","conference_url":"","group_notes":"Friday meeting in person masks required","city":"Kansas City","country":"USA","location_notes":"Country Club Congregational United Church of Christ enter thru side door","postal_code":64113,"address":"205 W 65th St","day":5,"latitude":39.0100287,"conference_phone":""},{"location":"","longitude":-94.5912288,"updated":"2021-05-26 19:03:46","state":"MO","time":"11:00","slug":4554,"append":" LIT","url":"http://district6.wamo-aa.org/meetinfo2.cfm?id=4554","name":"24 & 7","types":["C","X","onl"],"notes":"","conference_url":"https://zoom.us/j/101881151","group_notes":"Friday meeting in person masks required","city":"Kansas City","country":"USA","location_notes":"Country Club Congregational United Church of Christ enter thru side door","postal_code":64113,"address":"205 W 65th St","day":6,"latitude":39.0100287,"conference_phone":"+13126266799,101881151#"},{"location":"","longitude":-94.5937629,"updated":"2021-05-26 19:03:46","state":"MO","time":"12:00","slug":5716,"append":" BB","url":"http://district6.wamo-aa.org/meetinfo2.cfm?id=5716","name":"Kansas City Group #1","types":["C","X","B"],"notes":"masks required","conference_url":"","group_notes":"Hall is still open from 11:30am to 7:30 Tuesday & Thursdays <br> other days open at 9am - MASKS REQUIRED","city":"Kansas City","country":"USA","location_notes":"(3 doors off Wornall)","postal_code":64114,"address":"311 W. 80 Terrace ","day":3,"latitude":38.9820752,"conference_phone":""},{"location":"St Mary's Espiscopal Church","longitude":-94.5748153,"updated":"2021-05-26 19:03:46","state":"MO","time":"12:00","slug":4875,"append":" ","url":"http://district6.wamo-aa.org/meetinfo2.cfm?id=4875","name":"Downtown Basement Group","types":["O","X","TC"],"notes":"","conference_url":"","group_notes":"\t\t\t            ","city":"Kansas City","country":"USA","location_notes":"Basement","postal_code":64108,"address":"1307 Holmes","day":0,"latitude":39.0981330,"conference_phone":""},{"location":"St Mary's Espiscopal Church","longitude":-94.5748153,"updated":"2021-05-26 19:03:46","state":"MO","time":"19:00","slug":4876,"append":" ","url":"http://district6.wamo-aa.org/meetinfo2.cfm?id=4876","name":"Downtown Basement Group","types":["O","X","TC"],"notes":"","conference_url":"","group_notes":"\t\t\t            ","city":"Kansas City","country":"USA","location_notes":"Basement","postal_code":64108,"address":"1307 Holmes","day":3,"latitude":39.0981330,"conference_phone":""},{"location":"","longitude":-94.5937629,"updated":"2021-05-26 19:03:46","state":"MO","time":"11:00","slug":4886,"append":"W    ","url":"http://district6.wamo-aa.org/meetinfo2.cfm?id=4886","name":"Kansas City Group #1","types":["C","W","X"],"notes":"masks required","conference_url":"","group_notes":"Hall is still open from 11:30am to 7:30 Tuesday & Thursdays <br> other days open at 9am - MASKS REQUIRED","city":"Kansas City","country":"USA","location_notes":"(3 doors off Wornall)","postal_code":64114,"address":"311 W. 80 Terrace ","day":6,"latitude":38.9820752,"conference_phone":""},{"location":"St Mary's Espiscopal Church","longitude":-94.5748153,"updated":"2021-05-26 19:03:46","state":"MO","time":"10:00","slug":4893,"append":" S","url":"http://district6.wamo-aa.org/meetinfo2.cfm?id=4893","name":"Downtown Basement Group","types":["O","X","TC","ST"],"notes":"","conference_url":"","group_notes":"\t\t\t            ","city":"Kansas City","country":"USA","location_notes":"Basement","postal_code":64108,"address":"1307 Holmes","day":6,"latitude":39.0981330,"conference_phone":""},{"location":"Christ Community Church","longitude":-94.5848594,"updated":"2021-05-26 19:03:46","state":"MO","time":"19:00","slug":4895,"append":" LIT","url":"http://district6.wamo-aa.org/meetinfo2.cfm?id=4895","name":"Living Sober on Baltimore","types":["O","TC"],"notes":"","conference_url":"","group_notes":"            ","city":"Kansas City","country":"USA","location_notes":"","postal_code":64108,"address":"1708 Baltimore","day":5,"latitude":39.0923431,"conference_phone":""},{"location":"","longitude":-94.5529430,"updated":"2021-05-26 19:03:46","state":"MO","time":"19:00","slug":4896,"append":" ","url":"http://district6.wamo-aa.org/meetinfo2.cfm?id=4896","name":"Miracles on Montgall","types":["O"],"notes":"","conference_url":"","group_notes":"            ","city":"Kansas City","country":"USA","location_notes":"","postal_code":64130,"address":"4418 Montgall","day":3,"latitude":39.0456420,"conference_phone":""},{"location":"Covenant Presbyterian Church","longitude":-94.5413681,"updated":"2021-05-26 19:03:46","state":"MO","time":"20:00","slug":4898,"append":" ST","url":"http://district6.wamo-aa.org/meetinfo2.cfm?id=4898","name":"New Fellowship","types":["C","ST","TR"],"notes":"","conference_url":"","group_notes":"\t\t\t            ","city":"Kansas City","country":"USA","location_notes":"2nd floor- ring bell after 8:30pm","postal_code":64130,"address":"5931 Swope Parkway","day":2,"latitude":39.0174737,"conference_phone":""},{"location":"Evangalistic Center Church","longitude":-94.5671668,"updated":"2021-05-26 19:03:46","state":"MO","time":"18:00","slug":4913,"append":" BB","url":"http://district6.wamo-aa.org/meetinfo2.cfm?id=4913","name":"Came to Believe","types":["C","B"],"notes":"","conference_url":"","group_notes":"\t\t\t            ","city":"Kansas City","country":"USA","location_notes":"use South entrance, ring bell","postal_code":64106,"address":"1013 E. Truman ","day":4,"latitude":39.0952749,"conference_phone":""},{"location":"","longitude":-94.5192563,"updated":"2021-05-26 19:03:46","state":"MO","time":"19:00","slug":4915,"append":" ","url":"http://district6.wamo-aa.org/meetinfo2.cfm?id=4915","name":"Almost Home","types":["O"],"notes":"","conference_url":"","group_notes":"            ","city":"Kansas City","country":"USA","location_notes":"","postal_code":64127,"address":"1701 Hardesty Ave ","day":4,"latitude":39.0903400,"conference_phone":""},{"location":"Jamison Memorial Temple","longitude":-94.5465145,"updated":"2021-05-26 19:03:46","state":"MO","time":"17:00","slug":4916,"append":" LIT","url":"http://district6.wamo-aa.org/meetinfo2.cfm?id=4916","name":"39TH Street Love & Service","types":["C"],"notes":"","conference_url":"","group_notes":"\t\t\t            ","city":"Kansas City","country":"USA","location_notes":"","postal_code":64128,"address":"3115 E. Linwood","day":2,"latitude":39.0675613,"conference_phone":""},{"location":"Benilde Hall","longitude":-94.5447743,"updated":"2021-05-26 19:03:46","state":"MO","time":"18:30","slug":4917,"append":" SPK","url":"http://district6.wamo-aa.org/meetinfo2.cfm?id=4917","name":"12 Gates of Recovery","types":["O","SP"],"notes":"","conference_url":"","group_notes":"            ","city":"Kansas City","country":"USA","location_notes":"","postal_code":64127,"address":"3220 E. 23rd Street","day":0,"latitude":39.0844417,"conference_phone":""},{"location":"Benilde Hall","longitude":-94.5447743,"updated":"2021-05-26 19:03:46","state":"MO","time":"19:15","slug":4918,"append":" BB","url":"http://district6.wamo-aa.org/meetinfo2.cfm?id=4918","name":"12 Gates of Recovery","types":["O","B"],"notes":"","conference_url":"","group_notes":"            ","city":"Kansas City","country":"USA","location_notes":"","postal_code":64127,"address":"3220 E. 23rd Street","day":1,"latitude":39.0844417,"conference_phone":""},{"location":"Benilde Hall","longitude":-94.5447743,"updated":"2021-05-26 19:03:46","state":"MO","time":"19:30","slug":4919,"append":" NEW","url":"http://district6.wamo-aa.org/meetinfo2.cfm?id=4919","name":"12 Gates of Recovery","types":["O"],"notes":"","conference_url":"","group_notes":"            ","city":"Kansas City","country":"USA","location_notes":"","postal_code":64127,"address":"3220 E. 23rd Street","day":3,"latitude":39.0844417,"conference_phone":""},{"location":"Benilde Hall","longitude":-94.5447743,"updated":"2021-05-26 19:03:46","state":"MO","time":"19:30","slug":4920,"append":" SPK","url":"http://district6.wamo-aa.org/meetinfo2.cfm?id=4920","name":"12 Gates of Recovery","types":["O","SP"],"notes":"","conference_url":"","group_notes":"            ","city":"Kansas City","country":"USA","location_notes":"","postal_code":64127,"address":"3220 E. 23rd Street","day":4,"latitude":39.0844417,"conference_phone":""},{"location":"Benilde Hall","longitude":-94.5447743,"updated":"2021-05-26 19:03:46","state":"MO","time":"16:30","slug":4921,"append":" BB","url":"http://district6.wamo-aa.org/meetinfo2.cfm?id=4921","name":"12 Gates of Recovery","types":["O","B"],"notes":"","conference_url":"","group_notes":"            ","city":"Kansas City","country":"USA","location_notes":"","postal_code":64127,"address":"3220 E. 23rd Street","day":5,"latitude":39.0844417,"conference_phone":""},{"location":"Benilde Hall","longitude":-94.5447743,"updated":"2021-05-26 19:03:46","state":"MO","time":"18:00","slug":4922,"append":" S","url":"http://district6.wamo-aa.org/meetinfo2.cfm?id=4922","name":"12 Gates of Recovery","types":["O","ST"],"notes":"","conference_url":"","group_notes":"            ","city":"Kansas City","country":"USA","location_notes":"","postal_code":64127,"address":"3220 E. 23rd Street","day":6,"latitude":39.0844417,"conference_phone":""},{"location":"","longitude":-94.5430571,"updated":"2021-05-26 19:03:46","state":"MO","time":"19:00","slug":4923,"append":" ","url":"http://district6.wamo-aa.org/meetinfo2.cfm?id=4923","name":"It Ain't Over","types":["C"],"notes":"","conference_url":"","group_notes":"\t\t\t            ","city":"Kansas City","country":"USA","location_notes":"","postal_code":64128,"address":"2835 Indiana","day":1,"latitude":39.0737660,"conference_phone":""},{"location":"Footprints Building","longitude":-94.5724776,"updated":"2021-05-26 19:03:46","state":"MO","time":"14:00","slug":4924,"append":" ","url":"http://district6.wamo-aa.org/meetinfo2.cfm?id=4924","name":"New Chosen Few","types":["O"],"notes":"","conference_url":"","group_notes":"Masks Required","city":"Kansas City","country":"USA","location_notes":"Come in Red Back Door ","postal_code":64110,"address":"4501 Troost","day":6,"latitude":39.0451032,"conference_phone":""},{"location":"Church Of The Resurrection","longitude":-94.5802974,"updated":"2021-05-26 19:03:46","state":"MO","time":"07:00","slug":4925,"append":" ","url":"http://district6.wamo-aa.org/meetinfo2.cfm?id=4925","name":"Sober at 7","types":["C"],"notes":"","conference_url":"","group_notes":"\t\t\t            ","city":"Kansas City","country":"USA","location_notes":"Parking on South side of building ","postal_code":64106,"address":"1522 McGee ","day":1,"latitude":39.0949952,"conference_phone":""},{"location":"Church Of The Resurrection","longitude":-94.5802974,"updated":"2021-05-26 19:03:46","state":"MO","time":"07:00","slug":4926,"append":" ","url":"http://district6.wamo-aa.org/meetinfo2.cfm?id=4926","name":"Sober at 7","types":["C"],"notes":"","conference_url":"","group_notes":"\t\t\t            ","city":"Kansas City","country":"USA","location_notes":"Parking on South side of building ","postal_code":64106,"address":"1522 McGee ","day":3,"latitude":39.0949952,"conference_phone":""},{"location":"Church Of The Resurrection","longitude":-94.5802974,"updated":"2021-05-26 19:03:46","state":"MO","time":"07:00","slug":4927,"append":" ","url":"http://district6.wamo-aa.org/meetinfo2.cfm?id=4927","name":"Sober at 7","types":["C"],"notes":"","conference_url":"","group_notes":"\t\t\t            ","city":"Kansas City","country":"USA","location_notes":"Parking on South side of building ","postal_code":64106,"address":"1522 McGee ","day":5,"latitude":39.0949952,"conference_phone":""},{"location":"","longitude":-94.5242942,"updated":"2021-05-26 19:03:46","state":"MO","time":"18:00","slug":4948,"append":" ","url":"http://district6.wamo-aa.org/meetinfo2.cfm?id=4948","name":"St Michael's Veteran's Group","types":["O"],"notes":"","conference_url":"","group_notes":"\t\t\t            ","city":"Kansas City","country":"USA","location_notes":"","postal_code":64128,"address":"3838 Chelsea","day":4,"latitude":39.0564852,"conference_phone":""},{"location":"Country Club Christian Church","longitude":-94.6012228,"updated":"2021-05-26 19:03:46","state":"MO","time":"12:00","slug":4959,"append":" ","url":"http://district6.wamo-aa.org/meetinfo2.cfm?id=4959","name":"Ward Parkway Group","types":["C"],"notes":"","conference_url":"","group_notes":"\t\t\t            ","city":"Kansas City","country":"USA","location_notes":"","postal_code":64113,"address":"6101 Ward Pkwy","day":4,"latitude":39.0169507,"conference_phone":""},{"location":"Country Club Christian Church","longitude":-94.6012228,"updated":"2021-05-26 19:03:46","state":"MO","time":"12:00","slug":4960,"append":" ","url":"http://district6.wamo-aa.org/meetinfo2.cfm?id=4960","name":"Ward Parkway Group","types":["C"],"notes":"","conference_url":"","group_notes":"\t\t\t            ","city":"Kansas City","country":"USA","location_notes":"","postal_code":64113,"address":"6101 Ward Pkwy","day":1,"latitude":39.0169507,"conference_phone":""},{"location":"Country Club Christian Church","longitude":-94.6012228,"updated":"2021-05-26 19:03:46","state":"MO","time":"12:00","slug":4961,"append":" ","url":"http://district6.wamo-aa.org/meetinfo2.cfm?id=4961","name":"Ward Parkway Group","types":["C"],"notes":"","conference_url":"","group_notes":"\t\t\t            ","city":"Kansas City","country":"USA","location_notes":"","postal_code":64113,"address":"6101 Ward Pkwy","day":2,"latitude":39.0169507,"conference_phone":""},{"location":"Country Club Christian Church","longitude":-94.6012228,"updated":"2021-05-26 19:03:46","state":"MO","time":"18:30","slug":4962,"append":" ","url":"http://district6.wamo-aa.org/meetinfo2.cfm?id=4962","name":"Ward Parkway Group","types":["O"],"notes":"","conference_url":"","group_notes":"\t\t\t            ","city":"Kansas City","country":"USA","location_notes":"","postal_code":64113,"address":"6101 Ward Pkwy","day":5,"latitude":39.0169507,"conference_phone":""},{"location":"","longitude":-94.5648669,"updated":"2021-05-26 19:03:46","state":"MO","time":"19:30","slug":4963,"append":" ","url":"http://district6.wamo-aa.org/meetinfo2.cfm?id=4963","name":"Way Out Group","types":["O"],"notes":"","conference_url":"","group_notes":"\t\t\t            ","city":"Kansas City","country":"USA","location_notes":"","postal_code":64128,"address":"3324 Wayne","day":2,"latitude":39.0657093,"conference_phone":""},{"location":"","longitude":-94.5648669,"updated":"2021-05-26 19:03:46","state":"MO","time":"19:30","slug":4964,"append":" ","url":"http://district6.wamo-aa.org/meetinfo2.cfm?id=4964","name":"Way Out Group","types":["O"],"notes":"","conference_url":"","group_notes":"\t\t\t            ","city":"Kansas City","country":"USA","location_notes":"","postal_code":64128,"address":"3324 Wayne","day":4,"latitude":39.0657093,"conference_phone":""},{"location":"St Mark Hope and Peace Lutheran Church","longitude":-94.5726389,"updated":"2021-05-26 19:03:46","state":"MO","time":"22:30","slug":4965,"append":" ","url":"http://district6.wamo-aa.org/meetinfo2.cfm?id=4965","name":"We Are One","types":["C"],"notes":"","conference_url":"","group_notes":"\t\t\t            ","city":"Kansas City","country":"USA","location_notes":"","postal_code":64110,"address":"3800 Troost Ave ","day":5,"latitude":39.0577720,"conference_phone":""},{"location":"St Mark Hope and Peace Lutheran Church","longitude":-94.5726389,"updated":"2021-05-26 19:03:46","state":"MO","time":"18:00","slug":4966,"append":"W ","url":"http://district6.wamo-aa.org/meetinfo2.cfm?id=4966","name":"We Are One","types":["O","W"],"notes":"","conference_url":"","group_notes":"\t\t\t            ","city":"Kansas City","country":"USA","location_notes":"","postal_code":64110,"address":"3800 Troost Ave ","day":6,"latitude":39.0577720,"conference_phone":""},{"location":"Men's Recovery House ","longitude":-94.5660482,"updated":"2021-05-26 19:03:46","state":"MO","time":"19:00","slug":4974,"append":" ","url":"http://district6.wamo-aa.org/meetinfo2.cfm?id=4974","name":"Welcome House","types":["O"],"notes":"","conference_url":"","group_notes":"No meeting last Thursday of the month\t\t\t            ","city":"Kansas City","country":"USA","location_notes":"","postal_code":64108,"address":"1414 E. 27TH Street","day":1,"latitude":39.0778628,"conference_phone":""},{"location":"","longitude":-94.5937629,"updated":"2021-05-26 19:03:46","state":"MO","time":"09:00","slug":4998,"append":" SPRT","url":"http://district6.wamo-aa.org/meetinfo2.cfm?id=4998","name":"Kansas City Group #1","types":["C","X"],"notes":"masks required","conference_url":"","group_notes":"Hall is still open from 11:30am to 7:30 Tuesday & Thursdays <br> other days open at 9am - MASKS REQUIRED","city":"Kansas City","country":"USA","location_notes":"(3 doors off Wornall)","postal_code":64114,"address":"311 W. 80 Terrace ","day":0,"latitude":38.9820752,"conference_phone":""},{"location":"","longitude":-94.5937629,"updated":"2021-05-26 19:03:46","state":"MO","time":"18:00","slug":5717,"append":" LIT","url":"http://district6.wamo-aa.org/meetinfo2.cfm?id=5717","name":"Kansas City Group #1","types":["C","X"],"notes":"masks required","conference_url":"","group_notes":"Hall is still open from 11:30am to 7:30 Tuesday & Thursdays <br> other days open at 9am - MASKS REQUIRED","city":"Kansas City","country":"USA","location_notes":"(3 doors off Wornall)","postal_code":64114,"address":"311 W. 80 Terrace ","day":4,"latitude":38.9820752,"conference_phone":""},{"location":"","longitude":-94.5937629,"updated":"2021-05-26 19:03:46","state":"MO","time":"12:00","slug":5718,"append":" LIT","url":"http://district6.wamo-aa.org/meetinfo2.cfm?id=5718","name":"Kansas City Group #1","types":["C","X"],"notes":"masks required","conference_url":"","group_notes":"Hall is still open from 11:30am to 7:30 Tuesday & Thursdays <br> other days open at 9am - MASKS REQUIRED","city":"Kansas City","country":"USA","location_notes":"(3 doors off Wornall)","postal_code":64114,"address":"311 W. 80 Terrace ","day":5,"latitude":38.9820752,"conference_phone":""},{"location":"Peace Baptist Church","longitude":-94.5501679,"updated":"2021-05-26 19:03:46","state":"MO","time":"15:00","slug":5721,"append":"W none","url":"http://district6.wamo-aa.org/meetinfo2.cfm?id=5721","name":"Can We Talk","types":["C","W","X"],"notes":"","conference_url":"","group_notes":"","city":"Kansas City","country":"USA","location_notes":"","postal_code":64127,"address":"2300 Chestnut Avenue","day":6,"latitude":39.0842060,"conference_phone":""},{"location":"","longitude":-94.5937629,"updated":"2021-05-26 19:03:46","state":"MO","time":"18:00","slug":5786,"append":" NEW","url":"http://district6.wamo-aa.org/meetinfo2.cfm?id=5786","name":"Kansas City Group #1","types":["C","X"],"notes":"masks required","conference_url":"","group_notes":"Hall is still open from 11:30am to 7:30 Tuesday & Thursdays <br> other days open at 9am - MASKS REQUIRED","city":"Kansas City","country":"USA","location_notes":"(3 doors off Wornall)","postal_code":64114,"address":"311 W. 80 Terrace ","day":2,"latitude":38.9820752,"conference_phone":""},{"location":"St Mark Hope and Peace Lutheran Church","longitude":-94.5726389,"updated":"2021-05-26 19:03:46","state":"MO","time":"19:30","slug":5270,"append":" SPK","url":"http://district6.wamo-aa.org/meetinfo2.cfm?id=5270","name":"We Are One","types":["O","SP"],"notes":"","conference_url":"","group_notes":"\t\t\t            ","city":"Kansas City","country":"USA","location_notes":"","postal_code":64110,"address":"3800 Troost Ave ","day":0,"latitude":39.0577720,"conference_phone":""},{"location":"St Mark Hope and Peace Lutheran Church","longitude":-94.5726389,"updated":"2021-05-26 19:03:46","state":"MO","time":"10:00","slug":5271,"append":" S","url":"http://district6.wamo-aa.org/meetinfo2.cfm?id=5271","name":"We Are One","types":["C","ST"],"notes":"","conference_url":"","group_notes":"\t\t\t            ","city":"Kansas City","country":"USA","location_notes":"","postal_code":64110,"address":"3800 Troost Ave ","day":1,"latitude":39.0577720,"conference_phone":""},{"location":"St Mark Hope and Peace Lutheran Church","longitude":-94.5726389,"updated":"2021-05-26 19:03:46","state":"MO","time":"20:00","slug":5272,"append":" LIT","url":"http://district6.wamo-aa.org/meetinfo2.cfm?id=5272","name":"We Are One","types":["C"],"notes":"","conference_url":"","group_notes":"\t\t\t            ","city":"Kansas City","country":"USA","location_notes":"","postal_code":64110,"address":"3800 Troost Ave ","day":1,"latitude":39.0577720,"conference_phone":""},{"location":"St Mark Hope and Peace Lutheran Church","longitude":-94.5726389,"updated":"2021-05-26 19:03:46","state":"MO","time":"10:00","slug":5273,"append":" S","url":"http://district6.wamo-aa.org/meetinfo2.cfm?id=5273","name":"We Are One","types":["C","ST"],"notes":"","conference_url":"","group_notes":"\t\t\t            ","city":"Kansas City","country":"USA","location_notes":"","postal_code":64110,"address":"3800 Troost Ave ","day":2,"latitude":39.0577720,"conference_phone":""},{"location":"St Mark Hope and Peace Lutheran Church","longitude":-94.5726389,"updated":"2021-05-26 19:03:46","state":"MO","time":"20:00","slug":5274,"append":" BB","url":"http://district6.wamo-aa.org/meetinfo2.cfm?id=5274","name":"We Are One","types":["C","B"],"notes":"","conference_url":"","group_notes":"\t\t\t            ","city":"Kansas City","country":"USA","location_notes":"","postal_code":64110,"address":"3800 Troost Ave ","day":2,"latitude":39.0577720,"conference_phone":""},{"location":"St Mark Hope and Peace Lutheran Church","longitude":-94.5726389,"updated":"2021-05-26 19:03:46","state":"MO","time":"10:00","slug":5275,"append":" S","url":"http://district6.wamo-aa.org/meetinfo2.cfm?id=5275","name":"We Are One","types":["C","ST"],"notes":"","conference_url":"","group_notes":"\t\t\t            ","city":"Kansas City","country":"USA","location_notes":"","postal_code":64110,"address":"3800 Troost Ave ","day":3,"latitude":39.0577720,"conference_phone":""},{"location":"Country Club Congregational United Church of Christ","longitude":-94.5912288,"updated":"2021-05-26 19:03:46","state":"MO","time":"09:00","slug":5395,"append":"W    ","url":"http://district6.wamo-aa.org/meetinfo2.cfm?id=5395","name":"Just Us Girls (Women Only)","types":["C","W","CF","TC"],"notes":"","conference_url":"","group_notes":"\t\t\t            ","city":"Kansas City","country":"USA","location_notes":"Upstairs","postal_code":64110,"address":"205 W 65th St","day":6,"latitude":39.0100287,"conference_phone":""},{"location":"Men's Recovery House ","longitude":-94.5660482,"updated":"2021-05-26 19:03:46","state":"MO","time":"19:00","slug":5462,"append":"    ","url":"http://district6.wamo-aa.org/meetinfo2.cfm?id=5462","name":"Welcome House","types":["O"],"notes":"","conference_url":"","group_notes":"No meeting last Thursday of the month\t\t\t            ","city":"Kansas City","country":"USA","location_notes":"","postal_code":64108,"address":"1414 E. 27TH Street","day":0,"latitude":39.0778628,"conference_phone":""},{"location":"Men's Recovery House ","longitude":-94.5660482,"updated":"2021-05-26 19:03:46","state":"MO","time":"08:00","slug":5463,"append":"    ","url":"http://district6.wamo-aa.org/meetinfo2.cfm?id=5463","name":"Welcome House","types":["O"],"notes":"","conference_url":"","group_notes":"No meeting last Thursday of the month\t\t\t            ","city":"Kansas City","country":"USA","location_notes":"","postal_code":64108,"address":"1414 E. 27TH Street","day":1,"latitude":39.0778628,"conference_phone":""},{"location":"Men's Recovery House ","longitude":-94.5660482,"updated":"2021-05-26 19:03:46","state":"MO","time":"08:00","slug":5464,"append":"    ","url":"http://district6.wamo-aa.org/meetinfo2.cfm?id=5464","name":"Welcome House","types":["O"],"notes":"","conference_url":"","group_notes":"No meeting last Thursday of the month\t\t\t            ","city":"Kansas City","country":"USA","location_notes":"","postal_code":64108,"address":"1414 E. 27TH Street","day":2,"latitude":39.0778628,"conference_phone":""},{"location":"Men's Recovery House ","longitude":-94.5660482,"updated":"2021-05-26 19:03:46","state":"MO","time":"19:00","slug":5465,"append":"    ","url":"http://district6.wamo-aa.org/meetinfo2.cfm?id=5465","name":"Welcome House","types":["O"],"notes":"","conference_url":"","group_notes":"No meeting last Thursday of the month\t\t\t            ","city":"Kansas City","country":"USA","location_notes":"","postal_code":64108,"address":"1414 E. 27TH Street","day":2,"latitude":39.0778628,"conference_phone":""},{"location":"Men's Recovery House ","longitude":-94.5660482,"updated":"2021-05-26 19:03:46","state":"MO","time":"08:00","slug":5466,"append":"    ","url":"http://district6.wamo-aa.org/meetinfo2.cfm?id=5466","name":"Welcome House","types":["O"],"notes":"","conference_url":"","group_notes":"No meeting last Thursday of the month\t\t\t            ","city":"Kansas City","country":"USA","location_notes":"","postal_code":64108,"address":"1414 E. 27TH Street","day":3,"latitude":39.0778628,"conference_phone":""},{"location":"Men's Recovery House ","longitude":-94.5660482,"updated":"2021-05-26 19:03:46","state":"MO","time":"19:00","slug":5467,"append":"    ","url":"http://district6.wamo-aa.org/meetinfo2.cfm?id=5467","name":"Welcome House","types":["O"],"notes":"","conference_url":"","group_notes":"No meeting last Thursday of the month\t\t\t            ","city":"Kansas City","country":"USA","location_notes":"","postal_code":64108,"address":"1414 E. 27TH Street","day":3,"latitude":39.0778628,"conference_phone":""},{"location":"Men's Recovery House ","longitude":-94.5660482,"updated":"2021-05-26 19:03:46","state":"MO","time":"08:00","slug":5468,"append":"    ","url":"http://district6.wamo-aa.org/meetinfo2.cfm?id=5468","name":"Welcome House","types":["O"],"notes":"","conference_url":"","group_notes":"No meeting last Thursday of the month\t\t\t            ","city":"Kansas City","country":"USA","location_notes":"","postal_code":64108,"address":"1414 E. 27TH Street","day":4,"latitude":39.0778628,"conference_phone":""},{"location":"Men's Recovery House ","longitude":-94.5660482,"updated":"2021-05-26 19:03:46","state":"MO","time":"19:00","slug":5469,"append":"    ","url":"http://district6.wamo-aa.org/meetinfo2.cfm?id=5469","name":"Welcome House","types":["O"],"notes":"","conference_url":"","group_notes":"No meeting last Thursday of the month\t\t\t            ","city":"Kansas City","country":"USA","location_notes":"","postal_code":64108,"address":"1414 E. 27TH Street","day":4,"latitude":39.0778628,"conference_phone":""},{"location":"Men's Recovery House ","longitude":-94.5660482,"updated":"2021-05-26 19:03:46","state":"MO","time":"08:00","slug":5470,"append":"    ","url":"http://district6.wamo-aa.org/meetinfo2.cfm?id=5470","name":"Welcome House","types":["O"],"notes":"","conference_url":"","group_notes":"No meeting last Thursday of the month\t\t\t            ","city":"Kansas City","country":"USA","location_notes":"","postal_code":64108,"address":"1414 E. 27TH Street","day":5,"latitude":39.0778628,"conference_phone":""},{"location":"Men's Recovery House ","longitude":-94.5660482,"updated":"2021-05-26 19:03:46","state":"MO","time":"19:30","slug":5471,"append":"    ","url":"http://district6.wamo-aa.org/meetinfo2.cfm?id=5471","name":"Welcome House","types":["O"],"notes":"","conference_url":"","group_notes":"No meeting last Thursday of the month\t\t\t            ","city":"Kansas City","country":"USA","location_notes":"","postal_code":64108,"address":"1414 E. 27TH Street","day":5,"latitude":39.0778628,"conference_phone":""},{"location":"Men's Recovery House ","longitude":-94.5660482,"updated":"2021-05-26 19:03:46","state":"MO","time":"19:00","slug":5472,"append":"    ","url":"http://district6.wamo-aa.org/meetinfo2.cfm?id=5472","name":"Welcome House","types":["O"],"notes":"","conference_url":"","group_notes":"No meeting last Thursday of the month\t\t\t            ","city":"Kansas City","country":"USA","location_notes":"","postal_code":64108,"address":"1414 E. 27TH Street","day":6,"latitude":39.0778628,"conference_phone":""},{"location":"Men's Recovery House ","longitude":-94.5660482,"updated":"2021-05-26 19:03:46","state":"MO","time":"20:00","slug":5473,"append":"    ","url":"http://district6.wamo-aa.org/meetinfo2.cfm?id=5473","name":"Welcome House","types":["O"],"notes":"","conference_url":"","group_notes":"No meeting last Thursday of the month\t\t\t            ","city":"Kansas City","country":"USA","location_notes":"","postal_code":64108,"address":"1414 E. 27TH Street","day":6,"latitude":39.0778628,"conference_phone":""},{"location":"St Mary's Espiscopal Church","longitude":-94.5748153,"updated":"2021-05-26 19:03:46","state":"MO","time":"19:00","slug":5510,"append":" ST","url":"http://district6.wamo-aa.org/meetinfo2.cfm?id=5510","name":"Downtown Basement Group","types":["O","X","TC","ST","TR"],"notes":"","conference_url":"","group_notes":"\t\t\t            ","city":"Kansas City","country":"USA","location_notes":"Basement","postal_code":64108,"address":"1307 Holmes","day":5,"latitude":39.0981330,"conference_phone":""},{"location":"Unity Temple,","longitude":-94.5952951,"updated":"2021-05-26 19:03:46","state":"MO","time":"12:00","slug":6556,"append":" none","url":"http://district6.wamo-aa.org/meetinfo2.cfm?id=6556","name":"Unity On the Plaza","types":["C"],"notes":"","conference_url":"","group_notes":"\t            ","city":"Kansas City","country":"USA","location_notes":"(Unity Temple, after 6pm use S. door)","postal_code":64112,"address":"707 W. 47th ","day":4,"latitude":39.0420954,"conference_phone":""},{"location":"City Life Church","longitude":-94.6037729,"updated":"2021-05-26 19:03:46","state":"MO","time":"19:30","slug":5597,"append":"W SPK","url":"http://district6.wamo-aa.org/meetinfo2.cfm?id=5597","name":"Women's Sanctuary","types":["C","W","X","SP"],"notes":"","conference_url":"","group_notes":"","city":"Kansas City","country":"USA","location_notes":"","postal_code":64111,"address":"4001 Wyoming St","day":2,"latitude":39.0550850,"conference_phone":""},{"location":"","longitude":-94.5937629,"updated":"2021-05-26 19:03:46","state":"MO","time":"18:00","slug":5642,"append":" BB","url":"http://district6.wamo-aa.org/meetinfo2.cfm?id=5642","name":"Kansas City Group #1","types":["C","X","B"],"notes":"masks required","conference_url":"","group_notes":"Hall is still open from 11:30am to 7:30 Tuesday & Thursdays <br> other days open at 9am - MASKS REQUIRED","city":"Kansas City","country":"USA","location_notes":"(3 doors off Wornall)","postal_code":64114,"address":"311 W. 80 Terrace ","day":3,"latitude":38.9820752,"conference_phone":""},{"location":"","longitude":-94.5937629,"updated":"2021-05-26 19:03:46","state":"MO","time":"12:00","slug":5643,"append":" 24H","url":"http://district6.wamo-aa.org/meetinfo2.cfm?id=5643","name":"Kansas City Group #1","types":["C","X"],"notes":"masks required","conference_url":"","group_notes":"Hall is still open from 11:30am to 7:30 Tuesday & Thursdays <br> other days open at 9am - MASKS REQUIRED","city":"Kansas City","country":"USA","location_notes":"(3 doors off Wornall)","postal_code":64114,"address":"311 W. 80 Terrace ","day":1,"latitude":38.9820752,"conference_phone":""},{"location":"Spirit of Hope Metropolitan Community Church","longitude":-94.5880375,"updated":"2021-05-26 19:03:46","state":"MO","time":"12:00","slug":5759,"append":"LGBT BB","url":"http://district6.wamo-aa.org/meetinfo2.cfm?id=5759","name":"Live and Let Live","types":["O","LGBTQ","TC","onl","B"],"notes":"","conference_url":"https://us02web.zoom.us/j/832247016?pwd=eE9IcDNueHZwcVJLT1N6UG5rYmVPdz09 ","group_notes":"","city":"Kansas City","country":"USA","location_notes":"","postal_code":64111,"address":"3801 Wyandotte","day":3,"latitude":39.0582246,"conference_phone":""},{"location":"Spirit of Hope Metropolitan Community Church","longitude":-94.5880375,"updated":"2021-05-26 19:03:46","state":"MO","time":"12:00","slug":5760,"append":"LGBT LIT","url":"http://district6.wamo-aa.org/meetinfo2.cfm?id=5760","name":"Live and Let Live","types":["O","LGBTQ","TC","onl"],"notes":"","conference_url":"https://us02web.zoom.us/j/832247016?pwd=eE9IcDNueHZwcVJLT1N6UG5rYmVPdz09 ","group_notes":"","city":"Kansas City","country":"USA","location_notes":"","postal_code":64111,"address":"3801 Wyandotte","day":4,"latitude":39.0582246,"conference_phone":""},{"location":"Spirit of Hope Metropolitan Community Church","longitude":-94.5880375,"updated":"2021-05-26 19:03:46","state":"MO","time":"12:00","slug":5761,"append":"LGBT ST","url":"http://district6.wamo-aa.org/meetinfo2.cfm?id=5761","name":"Live and Let Live","types":["O","LGBTQ","TC","onl","ST","TR"],"notes":"","conference_url":"https://us02web.zoom.us/j/832247016?pwd=eE9IcDNueHZwcVJLT1N6UG5rYmVPdz09 ","group_notes":"","city":"Kansas City","country":"USA","location_notes":"","postal_code":64111,"address":"3801 Wyandotte","day":5,"latitude":39.0582246,"conference_phone":""},{"location":"","longitude":-94.5937629,"updated":"2021-05-26 19:03:46","state":"MO","time":"09:00","slug":5785,"append":" SPRT","url":"http://district6.wamo-aa.org/meetinfo2.cfm?id=5785","name":"Kansas City Group #1","types":["C","X"],"notes":"masks required","conference_url":"","group_notes":"Hall is still open from 11:30am to 7:30 Tuesday & Thursdays <br> other days open at 9am - MASKS REQUIRED","city":"Kansas City","country":"USA","location_notes":"(3 doors off Wornall)","postal_code":64114,"address":"311 W. 80 Terrace ","day":1,"latitude":38.9820752,"conference_phone":""},{"location":"","longitude":-94.5844899,"updated":"2021-05-26 19:03:46","state":"MO","time":"18:00","slug":5827,"append":"    ","url":"http://district6.wamo-aa.org/meetinfo2.cfm?id=5827","name":"We Agnostics","types":["C","TC"],"notes":"","conference_url":"","group_notes":"also 10am Sunday KU Med cafeteria is suspended until further notice\t\t            ","city":"Kansas City","country":"USA","location_notes":"","postal_code":64111,"address":"4501 Walnut Street","day":5,"latitude":39.0459327,"conference_phone":""},{"location":"","longitude":-94.5937629,"updated":"2021-05-26 19:03:46","state":"MO","time":"19:00","slug":6589,"append":"    ","url":"http://district6.wamo-aa.org/meetinfo2.cfm?id=6589","name":"Kansas City Group #1","types":["C","X","onl"],"notes":"","conference_url":"https://zoom.us/j/8165231583?pwd=dElQNXRycWE3R1E0a2kvS04xYitPdz09","group_notes":"Hall is still open from 11:30am to 7:30 Tuesday & Thursdays <br> other days open at 9am - MASKS REQUIRED","city":"Kansas City","country":"USA","location_notes":"(3 doors off Wornall)","postal_code":64114,"address":"311 W. 80 Terrace ","day":5,"latitude":38.9820752,"conference_phone":""},{"location":"Westport Presbyterian Church","longitude":-94.5884408,"updated":"2021-05-26 19:03:46","state":"MO","time":"18:00","slug":5656,"append":"W    ","url":"http://district6.wamo-aa.org/meetinfo2.cfm?id=5656","name":"Wednesday's Women","types":["C","W","CF"],"notes":"","conference_url":"","group_notes":"\t\t\t            ","city":"Kansas City","country":"USA","location_notes":"","postal_code":64111,"address":"201 Westport Road ","day":3,"latitude":39.0538216,"conference_phone":""},{"location":"","longitude":-94.5937629,"updated":"2021-05-26 19:03:46","state":"MO","time":"09:00","slug":5732,"append":"    ","url":"http://district6.wamo-aa.org/meetinfo2.cfm?id=5732","name":"Kansas City Group #1","types":["C","X"],"notes":"masks required","conference_url":"","group_notes":"Hall is still open from 11:30am to 7:30 Tuesday & Thursdays <br> other days open at 9am - MASKS REQUIRED","city":"Kansas City","country":"USA","location_notes":"(3 doors off Wornall)","postal_code":64114,"address":"311 W. 80 Terrace ","day":5,"latitude":38.9820752,"conference_phone":""},{"location":"Spirit of Hope Metropolitan Community Church","longitude":-94.5880375,"updated":"2021-05-26 19:03:46","state":"MO","time":"12:00","slug":5756,"append":"LGBT SPRT","url":"http://district6.wamo-aa.org/meetinfo2.cfm?id=5756","name":"Live and Let Live","types":["O","LGBTQ","TC","onl"],"notes":"","conference_url":"https://us02web.zoom.us/j/832247016?pwd=eE9IcDNueHZwcVJLT1N6UG5rYmVPdz09 ","group_notes":"","city":"Kansas City","country":"USA","location_notes":"","postal_code":64111,"address":"3801 Wyandotte","day":0,"latitude":39.0582246,"conference_phone":""},{"location":"Spirit of Hope Metropolitan Community Church","longitude":-94.5880375,"updated":"2021-05-26 19:03:46","state":"MO","time":"12:00","slug":5757,"append":"LGBT LIT","url":"http://district6.wamo-aa.org/meetinfo2.cfm?id=5757","name":"Live and Let Live","types":["O","LGBTQ","TC","onl"],"notes":"","conference_url":"https://us02web.zoom.us/j/832247016?pwd=eE9IcDNueHZwcVJLT1N6UG5rYmVPdz09 ","group_notes":"","city":"Kansas City","country":"USA","location_notes":"","postal_code":64111,"address":"3801 Wyandotte","day":1,"latitude":39.0582246,"conference_phone":""},{"location":"Spirit of Hope Metropolitan Community Church","longitude":-94.5880375,"updated":"2021-05-26 19:03:46","state":"MO","time":"12:00","slug":5758,"append":"LGBT NEW","url":"http://district6.wamo-aa.org/meetinfo2.cfm?id=5758","name":"Live and Let Live","types":["O","LGBTQ","TC","onl"],"notes":"","conference_url":"https://us02web.zoom.us/j/832247016?pwd=eE9IcDNueHZwcVJLT1N6UG5rYmVPdz09 ","group_notes":"","city":"Kansas City","country":"USA","location_notes":"","postal_code":64111,"address":"3801 Wyandotte","day":2,"latitude":39.0582246,"conference_phone":""},{"location":"Spirit of Hope Metropolitan Community Church","longitude":-94.5880375,"updated":"2021-05-26 19:03:46","state":"MO","time":"12:00","slug":5762,"append":"LGBT    ","url":"http://district6.wamo-aa.org/meetinfo2.cfm?id=5762","name":"Live and Let Live","types":["O","LGBTQ","TC","onl"],"notes":"","conference_url":"https://us02web.zoom.us/j/832247016?pwd=eE9IcDNueHZwcVJLT1N6UG5rYmVPdz09 ","group_notes":"","city":"Kansas City","country":"USA","location_notes":"","postal_code":64111,"address":"3801 Wyandotte","day":6,"latitude":39.0582246,"conference_phone":""},{"location":"","longitude":-94.5844899,"updated":"2021-05-26 19:03:46","state":"MO","time":"18:00","slug":5822,"append":"    ","url":"http://district6.wamo-aa.org/meetinfo2.cfm?id=5822","name":"FreeThinkers in AA","types":["C","TC","onl"],"notes":"","conference_url":"https://zoom.us/j/166124667","group_notes":"\t\t\t            ","city":"Kansas City","country":"USA","location_notes":"Enter through door facing Wornall Road","postal_code":64111,"address":"4501 Walnut","day":1,"latitude":39.0459327,"conference_phone":"+13126266799,166124667#"},{"location":"","longitude":-94.5844899,"updated":"2021-05-26 19:03:46","state":"MO","time":"18:00","slug":5823,"append":"    ","url":"http://district6.wamo-aa.org/meetinfo2.cfm?id=5823","name":"FreeThinkers in AA","types":["C","TC","onl"],"notes":"","conference_url":"https://zoom.us/j/768804372","group_notes":"\t\t\t            ","city":"Kansas City","country":"USA","location_notes":"Enter through door facing Wornall Road","postal_code":64111,"address":"4501 Walnut","day":3,"latitude":39.0459327,"conference_phone":"+13126266799,,768804372#"},{"location":"","longitude":-94.5844899,"updated":"2021-05-26 19:03:46","state":"MO","time":"18:00","slug":5825,"append":"    ","url":"http://district6.wamo-aa.org/meetinfo2.cfm?id=5825","name":"We Agnostics","types":["C","TC","onl"],"notes":"","conference_url":"https://zoom.us/j/837265820","group_notes":"also 10am Sunday KU Med cafeteria is suspended until further notice\t\t            ","city":"Kansas City","country":"USA","location_notes":"","postal_code":64111,"address":"4501 Walnut Street","day":4,"latitude":39.0459327,"conference_phone":"+13126266799,,837265820#"},{"location":"","longitude":-94.5937629,"updated":"2021-05-26 19:03:46","state":"MO","time":"09:00","slug":6274,"append":"    ","url":"http://district6.wamo-aa.org/meetinfo2.cfm?id=6274","name":"KC Group 1 Online","types":["C","TC","onl"],"notes":"pwd=8165231583","conference_url":"https://zoom.us/j/8165231583?pwd=dElQNXRycWE3R1E0a2kvS04xYitPdz09","group_notes":"","city":"Kansas City","country":"USA","location_notes":"Hall is still open from 11:30am to 7:30 Tuesday & Thursdays - other days open at 9am","postal_code":64114,"address":"","day":1,"latitude":38.9820752,"conference_phone":"3126266799,,8165231583#,,#,,8165231583"},{"location":"","longitude":-94.5937629,"updated":"2021-05-26 19:03:46","state":"MO","time":"09:00","slug":6275,"append":"    ","url":"http://district6.wamo-aa.org/meetinfo2.cfm?id=6275","name":"KC Group 1 Online","types":["C","TC","onl"],"notes":"pwd=8165231583","conference_url":"https://zoom.us/j/8165231583?pwd=dElQNXRycWE3R1E0a2kvS04xYitPdz09","group_notes":"","city":"Kansas City","country":"USA","location_notes":"Hall is still open from 11:30am to 7:30 Tuesday & Thursdays - other days open at 9am","postal_code":64114,"address":"","day":2,"latitude":38.9820752,"conference_phone":"3126266799,,8165231583#,,#,,8165231583"},{"location":"","longitude":-94.5937629,"updated":"2021-05-26 19:03:46","state":"MO","time":"09:00","slug":6276,"append":"    ","url":"http://district6.wamo-aa.org/meetinfo2.cfm?id=6276","name":"KC Group 1 Online","types":["C","TC","onl"],"notes":"pwd=8165231583","conference_url":"https://zoom.us/j/8165231583?pwd=dElQNXRycWE3R1E0a2kvS04xYitPdz09","group_notes":"","city":"Kansas City","country":"USA","location_notes":"Hall is still open from 11:30am to 7:30 Tuesday & Thursdays - other days open at 9am","postal_code":64114,"address":"","day":4,"latitude":38.9820752,"conference_phone":"3126266799,,8165231583#,,#,,8165231583"},{"location":"","longitude":-94.5937629,"updated":"2021-05-26 19:03:46","state":"MO","time":"09:00","slug":6277,"append":"    ","url":"http://district6.wamo-aa.org/meetinfo2.cfm?id=6277","name":"KC Group 1 Online","types":["C","TC","onl"],"notes":"pwd=8165231583","conference_url":"https://zoom.us/j/8165231583?pwd=dElQNXRycWE3R1E0a2kvS04xYitPdz09","group_notes":"","city":"Kansas City","country":"USA","location_notes":"Hall is still open from 11:30am to 7:30 Tuesday & Thursdays - other days open at 9am","postal_code":64114,"address":"","day":5,"latitude":38.9820752,"conference_phone":"3126266799,,8165231583#,,#,,8165231583"},{"location":"","longitude":-94.5937629,"updated":"2021-05-26 19:03:46","state":"MO","time":"12:00","slug":6280,"append":"    ","url":"http://district6.wamo-aa.org/meetinfo2.cfm?id=6280","name":"KC Group 1 Online","types":["C","TC","onl"],"notes":"pwd=8165231583","conference_url":"https://zoom.us/j/8165231583?pwd=dElQNXRycWE3R1E0a2kvS04xYitPdz09","group_notes":"","city":"Kansas City","country":"USA","location_notes":"Hall is still open from 11:30am to 7:30 Tuesday & Thursdays - other days open at 9am","postal_code":64114,"address":"","day":1,"latitude":38.9820752,"conference_phone":"3126266799,,8165231583#,,#,,8165231583"},{"location":"","longitude":-94.5937629,"updated":"2021-05-26 19:03:46","state":"MO","time":"12:00","slug":6281,"append":"    ","url":"http://district6.wamo-aa.org/meetinfo2.cfm?id=6281","name":"KC Group 1 Online","types":["C","TC","onl"],"notes":"pwd=8165231583","conference_url":"https://zoom.us/j/8165231583?pwd=dElQNXRycWE3R1E0a2kvS04xYitPdz09","group_notes":"","city":"Kansas City","country":"USA","location_notes":"Hall is still open from 11:30am to 7:30 Tuesday & Thursdays - other days open at 9am","postal_code":64114,"address":"","day":2,"latitude":38.9820752,"conference_phone":"3126266799,,8165231583#,,#,,8165231583"},{"location":"","longitude":-94.5937629,"updated":"2021-05-26 19:03:46","state":"MO","time":"09:00","slug":6282,"append":"    ","url":"http://district6.wamo-aa.org/meetinfo2.cfm?id=6282","name":"KC Group 1 Online","types":["C","TC","onl"],"notes":"pwd=8165231583","conference_url":"https://zoom.us/j/8165231583?pwd=dElQNXRycWE3R1E0a2kvS04xYitPdz09","group_notes":"","city":"Kansas City","country":"USA","location_notes":"Hall is still open from 11:30am to 7:30 Tuesday & Thursdays - other days open at 9am","postal_code":64114,"address":"","day":3,"latitude":38.9820752,"conference_phone":"3126266799,,8165231583#,,#,,8165231583"},{"location":"","longitude":-94.5937629,"updated":"2021-05-26 19:03:46","state":"MO","time":"12:00","slug":6283,"append":"    ","url":"http://district6.wamo-aa.org/meetinfo2.cfm?id=6283","name":"KC Group 1 Online","types":["C","TC","onl"],"notes":"pwd=8165231583","conference_url":"https://zoom.us/j/8165231583?pwd=dElQNXRycWE3R1E0a2kvS04xYitPdz09","group_notes":"","city":"Kansas City","country":"USA","location_notes":"Hall is still open from 11:30am to 7:30 Tuesday & Thursdays - other days open at 9am","postal_code":64114,"address":"","day":3,"latitude":38.9820752,"conference_phone":"3126266799,,8165231583#,,#,,8165231583"},{"location":"","longitude":-94.5937629,"updated":"2021-05-26 19:03:46","state":"MO","time":"12:00","slug":6284,"append":"    ","url":"http://district6.wamo-aa.org/meetinfo2.cfm?id=6284","name":"KC Group 1 Online","types":["C","TC","onl"],"notes":"pwd=8165231583","conference_url":"https://zoom.us/j/8165231583?pwd=dElQNXRycWE3R1E0a2kvS04xYitPdz09","group_notes":"","city":"Kansas City","country":"USA","location_notes":"Hall is still open from 11:30am to 7:30 Tuesday & Thursdays - other days open at 9am","postal_code":64114,"address":"","day":4,"latitude":38.9820752,"conference_phone":"3126266799,,8165231583#,,#,,8165231583"},{"location":"","longitude":-94.5937629,"updated":"2021-05-26 19:03:46","state":"MO","time":"12:00","slug":6285,"append":"    ","url":"http://district6.wamo-aa.org/meetinfo2.cfm?id=6285","name":"KC Group 1 Online","types":["C","TC","onl"],"notes":"pwd=8165231583","conference_url":"https://zoom.us/j/8165231583?pwd=dElQNXRycWE3R1E0a2kvS04xYitPdz09","group_notes":"","city":"Kansas City","country":"USA","location_notes":"Hall is still open from 11:30am to 7:30 Tuesday & Thursdays - other days open at 9am","postal_code":64114,"address":"","day":5,"latitude":38.9820752,"conference_phone":"3126266799,,8165231583#,,#,,8165231583"},{"location":"","longitude":-94.5937629,"updated":"2021-05-26 19:03:46","state":"MO","time":"18:00","slug":6288,"append":"    ","url":"http://district6.wamo-aa.org/meetinfo2.cfm?id=6288","name":"KC Group 1 Online","types":["C","TC","onl"],"notes":"pwd=8165231583","conference_url":"https://zoom.us/j/8165231583?pwd=dElQNXRycWE3R1E0a2kvS04xYitPdz09","group_notes":"","city":"Kansas City","country":"USA","location_notes":"Hall is still open from 11:30am to 7:30 Tuesday & Thursdays - other days open at 9am","postal_code":64114,"address":"","day":1,"latitude":38.9820752,"conference_phone":"3126266799,,8165231583#,,#,,8165231583"},{"location":"","longitude":-94.5937629,"updated":"2021-05-26 19:03:46","state":"MO","time":"18:00","slug":6289,"append":"    ","url":"http://district6.wamo-aa.org/meetinfo2.cfm?id=6289","name":"KC Group 1 Online","types":["C","TC","onl"],"notes":"pwd=8165231583","conference_url":"https://zoom.us/j/8165231583?pwd=dElQNXRycWE3R1E0a2kvS04xYitPdz09","group_notes":"","city":"Kansas City","country":"USA","location_notes":"Hall is still open from 11:30am to 7:30 Tuesday & Thursdays - other days open at 9am","postal_code":64114,"address":"","day":2,"latitude":38.9820752,"conference_phone":"3126266799,,8165231583#,,#,,8165231583"},{"location":"","longitude":-94.5937629,"updated":"2021-05-26 19:03:46","state":"MO","time":"18:00","slug":6290,"append":"    ","url":"http://district6.wamo-aa.org/meetinfo2.cfm?id=6290","name":"KC Group 1 Online","types":["C","TC","onl"],"notes":"pwd=8165231583","conference_url":"https://zoom.us/j/8165231583?pwd=dElQNXRycWE3R1E0a2kvS04xYitPdz09","group_notes":"","city":"Kansas City","country":"USA","location_notes":"Hall is still open from 11:30am to 7:30 Tuesday & Thursdays - other days open at 9am","postal_code":64114,"address":"","day":3,"latitude":38.9820752,"conference_phone":"3126266799,,8165231583#,,#,,8165231583"},{"location":"","longitude":-94.5937629,"updated":"2021-05-26 19:03:46","state":"MO","time":"18:00","slug":6291,"append":"    ","url":"http://district6.wamo-aa.org/meetinfo2.cfm?id=6291","name":"KC Group 1 Online","types":["C","TC","onl"],"notes":"pwd=8165231583","conference_url":"https://zoom.us/j/8165231583?pwd=dElQNXRycWE3R1E0a2kvS04xYitPdz09","group_notes":"","city":"Kansas City","country":"USA","location_notes":"Hall is still open from 11:30am to 7:30 Tuesday & Thursdays - other days open at 9am","postal_code":64114,"address":"","day":4,"latitude":38.9820752,"conference_phone":"3126266799,,8165231583#,,#,,8165231583"},{"location":"","longitude":-94.5937629,"updated":"2021-05-26 19:03:46","state":"MO","time":"18:00","slug":6292,"append":"    ","url":"http://district6.wamo-aa.org/meetinfo2.cfm?id=6292","name":"KC Group 1 Online","types":["C","TC","onl"],"notes":"pwd=8165231583","conference_url":"https://zoom.us/j/8165231583?pwd=dElQNXRycWE3R1E0a2kvS04xYitPdz09","group_notes":"","city":"Kansas City","country":"USA","location_notes":"Hall is still open from 11:30am to 7:30 Tuesday & Thursdays - other days open at 9am","postal_code":64114,"address":"","day":5,"latitude":38.9820752,"conference_phone":"3126266799,,8165231583#,,#,,8165231583"},{"location":"","longitude":-94.5937629,"updated":"2021-05-26 19:03:46","state":"MO","time":"09:00","slug":6361,"append":" none","url":"http://district6.wamo-aa.org/meetinfo2.cfm?id=6361","name":"KC Group 1 Online","types":["C","TC","onl"],"notes":"pwd=8165231583","conference_url":"https://zoom.us/j/8165231583?pwd=dElQNXRycWE3R1E0a2kvS04xYitPdz09","group_notes":"","city":"Kansas City","country":"USA","location_notes":"Hall is still open from 11:30am to 7:30 Tuesday & Thursdays - other days open at 9am","postal_code":64114,"address":"","day":0,"latitude":38.9820752,"conference_phone":"3126266799,,8165231583#,,#,,8165231583"},{"location":"","longitude":-94.5937629,"updated":"2021-05-26 19:03:46","state":"MO","time":"18:00","slug":6362,"append":" none","url":"http://district6.wamo-aa.org/meetinfo2.cfm?id=6362","name":"KC Group 1 Online","types":["C","TC","onl"],"notes":"pwd=8165231583","conference_url":"https://zoom.us/j/8165231583?pwd=dElQNXRycWE3R1E0a2kvS04xYitPdz09","group_notes":"","city":"Kansas City","country":"USA","location_notes":"Hall is still open from 11:30am to 7:30 Tuesday & Thursdays - other days open at 9am","postal_code":64114,"address":"","day":0,"latitude":38.9820752,"conference_phone":"3126266799,,8165231583#,,#,,8165231583"},{"location":"Linwood United Church","longitude":-94.5549478,"updated":"2021-05-26 19:03:46","state":"MO","time":"10:00","slug":6567,"append":" SPK","url":"http://district6.wamo-aa.org/meetinfo2.cfm?id=6567","name":"Paseo Group","types":["O","onl","SP"],"notes":"","conference_url":"https://us02web.zoom.us/j/5146433808?pwd=bwdUWeCHgaA","group_notes":"Masks Required\t\t            ","city":"Kansas City","country":"USA","location_notes":"Enter on Olive Street side of building","postal_code":64109,"address":"3151 Olive","day":0,"latitude":39.0684957,"conference_phone":""},{"location":"","longitude":-94.5937629,"updated":"2021-05-26 19:03:46","state":"MO","time":"09:00","slug":6363,"append":" none","url":"http://district6.wamo-aa.org/meetinfo2.cfm?id=6363","name":"KC Group 1 Online","types":["C","TC","onl"],"notes":"pwd=8165231583","conference_url":"https://zoom.us/j/8165231583?pwd=dElQNXRycWE3R1E0a2kvS04xYitPdz09","group_notes":"","city":"Kansas City","country":"USA","location_notes":"Hall is still open from 11:30am to 7:30 Tuesday & Thursdays - other days open at 9am","postal_code":64114,"address":"","day":6,"latitude":38.9820752,"conference_phone":"3126266799,,8165231583#,,#,,8165231583"},{"location":"","longitude":-94.5937629,"updated":"2021-05-26 19:03:46","state":"MO","time":"09:00","slug":6188,"append":" GPV","url":"http://district6.wamo-aa.org/meetinfo2.cfm?id=6188","name":"Kansas City Group #1","types":["C","X"],"notes":"masks required","conference_url":"","group_notes":"Hall is still open from 11:30am to 7:30 Tuesday & Thursdays <br> other days open at 9am - MASKS REQUIRED","city":"Kansas City","country":"USA","location_notes":"(3 doors off Wornall)","postal_code":64114,"address":"311 W. 80 Terrace ","day":3,"latitude":38.9820752,"conference_phone":""},{"location":"","longitude":-94.5937629,"updated":"2021-05-26 19:03:46","state":"MO","time":"18:00","slug":6364,"append":" none","url":"http://district6.wamo-aa.org/meetinfo2.cfm?id=6364","name":"KC Group 1 Online","types":["C","TC","onl"],"notes":"pwd=8165231583","conference_url":"https://zoom.us/j/8165231583?pwd=dElQNXRycWE3R1E0a2kvS04xYitPdz09","group_notes":"","city":"Kansas City","country":"USA","location_notes":"Hall is still open from 11:30am to 7:30 Tuesday & Thursdays - other days open at 9am","postal_code":64114,"address":"","day":6,"latitude":38.9820752,"conference_phone":"3126266799,,8165231583#,,#,,8165231583"},{"location":"Unity Temple,","longitude":-94.5952951,"updated":"2021-05-26 19:03:46","state":"MO","time":"18:00","slug":6415,"append":" none","url":"http://district6.wamo-aa.org/meetinfo2.cfm?id=6415","name":"Unity On the Plaza","types":["C"],"notes":"Park Meeting - Loose Park North East Corner by the Statue","conference_url":"","group_notes":"\t            ","city":"Kansas City","country":"USA","location_notes":"(Unity Temple, after 6pm use S. door)","postal_code":64112,"address":"707 W. 47th ","day":0,"latitude":39.0420954,"conference_phone":""},{"location":"Linwood United Church","longitude":-94.5549478,"updated":"2021-05-26 19:03:46","state":"MO","time":"18:00","slug":6566,"append":"    ","url":"http://district6.wamo-aa.org/meetinfo2.cfm?id=6566","name":"Paseo Group","types":["C","onl"],"notes":"","conference_url":"https://us02web.zoom.us/j/5146433808?pwd=bwdUWeCHgaA","group_notes":"Masks Required\t\t            ","city":"Kansas City","country":"USA","location_notes":"Enter on Olive Street side of building","postal_code":64109,"address":"3151 Olive","day":6,"latitude":39.0684957,"conference_phone":""},{"location":"","longitude":-94.5844899,"updated":"2021-05-26 19:03:46","state":"MO","time":"10:00","slug":6253,"append":" none","url":"http://district6.wamo-aa.org/meetinfo2.cfm?id=6253","name":"We Agnostics","types":["C","TC","onl"],"notes":"","conference_url":"https://zoom.us/j/893756021","group_notes":"also 10am Sunday KU Med cafeteria is suspended until further notice\t\t            ","city":"Kansas City","country":"USA","location_notes":"","postal_code":64111,"address":"4501 Walnut Street","day":0,"latitude":39.0459327,"conference_phone":"+13126266799,,893756021#"},{"location":"Spirit of Hope Metropolitan Community Church","longitude":-94.5880375,"updated":"2021-05-26 19:03:46","state":"MO","time":"18:00","slug":6515,"append":"LGBT    ","url":"http://district6.wamo-aa.org/meetinfo2.cfm?id=6515","name":"Live and Let Live","types":["C","LGBTQ","TC"],"notes":"","conference_url":"https://us02web.zoom.us/j/83269240273?pwd=VEhSVkNiUG5jREtqOG5GUmtLRnZNdz09 ","group_notes":"","city":"Kansas City","country":"USA","location_notes":"","postal_code":64111,"address":"3801 Wyandotte","day":4,"latitude":39.0582246,"conference_phone":""},{"location":"Linwood United Church","longitude":-94.5549478,"updated":"2021-05-26 19:03:46","state":"MO","time":"12:00","slug":6538,"append":"    ","url":"http://district6.wamo-aa.org/meetinfo2.cfm?id=6538","name":"Paseo Group","types":["O"],"notes":"","conference_url":"https://us02web.zoom.us/j/5146433808?pwd=bwdUWeCHgaA","group_notes":"Masks Required\t\t            ","city":"Kansas City","country":"USA","location_notes":"Enter on Olive Street side of building","postal_code":64109,"address":"3151 Olive","day":1,"latitude":39.0684957,"conference_phone":""},{"location":"Linwood United Church","longitude":-94.5549478,"updated":"2021-05-26 19:03:46","state":"MO","time":"18:00","slug":6539,"append":"    ","url":"http://district6.wamo-aa.org/meetinfo2.cfm?id=6539","name":"Paseo Group","types":["O","onl"],"notes":"","conference_url":"https://us02web.zoom.us/j/5146433808?pwd=bwdUWeCHgaA","group_notes":"Masks Required\t\t            ","city":"Kansas City","country":"USA","location_notes":"Enter on Olive Street side of building","postal_code":64109,"address":"3151 Olive","day":1,"latitude":39.0684957,"conference_phone":""},{"location":"Linwood United Church","longitude":-94.5549478,"updated":"2021-05-26 19:03:46","state":"MO","time":"18:00","slug":6540,"append":" LIT","url":"http://district6.wamo-aa.org/meetinfo2.cfm?id=6540","name":"Paseo Group","types":["O","onl"],"notes":"","conference_url":"https://us02web.zoom.us/j/5146433808?pwd=bwdUWeCHgaA","group_notes":"Masks Required\t\t            ","city":"Kansas City","country":"USA","location_notes":"Enter on Olive Street side of building","postal_code":64109,"address":"3151 Olive","day":2,"latitude":39.0684957,"conference_phone":""},{"location":"Linwood United Church","longitude":-94.5549478,"updated":"2021-05-26 19:03:46","state":"MO","time":"18:00","slug":6541,"append":"    ","url":"http://district6.wamo-aa.org/meetinfo2.cfm?id=6541","name":"Paseo Group","types":["O","onl"],"notes":"","conference_url":"https://us02web.zoom.us/j/5146433808?pwd=bwdUWeCHgaA","group_notes":"Masks Required\t\t            ","city":"Kansas City","country":"USA","location_notes":"Enter on Olive Street side of building","postal_code":64109,"address":"3151 Olive","day":3,"latitude":39.0684957,"conference_phone":""},{"location":"Linwood United Church","longitude":-94.5549478,"updated":"2021-05-26 19:03:46","state":"MO","time":"18:00","slug":6542,"append":" LIT","url":"http://district6.wamo-aa.org/meetinfo2.cfm?id=6542","name":"Paseo Group","types":["O","onl"],"notes":"","conference_url":"https://us02web.zoom.us/j/5146433808?pwd=bwdUWeCHgaA","group_notes":"Masks Required\t\t            ","city":"Kansas City","country":"USA","location_notes":"Enter on Olive Street side of building","postal_code":64109,"address":"3151 Olive","day":4,"latitude":39.0684957,"conference_phone":""},{"location":"Linwood United Church","longitude":-94.5549478,"updated":"2021-05-26 19:03:46","state":"MO","time":"18:00","slug":6543,"append":"    ","url":"http://district6.wamo-aa.org/meetinfo2.cfm?id=6543","name":"Paseo Group","types":["O","onl"],"notes":"","conference_url":"https://us02web.zoom.us/j/5146433808?pwd=bwdUWeCHgaA","group_notes":"Masks Required\t\t            ","city":"Kansas City","country":"USA","location_notes":"Enter on Olive Street side of building","postal_code":64109,"address":"3151 Olive","day":5,"latitude":39.0684957,"conference_phone":""},{"location":"Unity Temple,","longitude":-94.5952951,"updated":"2021-05-26 19:03:46","state":"MO","time":"20:00","slug":6545,"append":" none","url":"http://district6.wamo-aa.org/meetinfo2.cfm?id=6545","name":"Unity On the Plaza","types":["C"],"notes":"","conference_url":"","group_notes":"\t            ","city":"Kansas City","country":"USA","location_notes":"(Unity Temple, after 6pm use S. door)","postal_code":64112,"address":"707 W. 47th ","day":0,"latitude":39.0420954,"conference_phone":""},{"location":"Unity Temple,","longitude":-94.5952951,"updated":"2021-05-26 19:03:46","state":"MO","time":"12:00","slug":6546,"append":" none","url":"http://district6.wamo-aa.org/meetinfo2.cfm?id=6546","name":"Unity On the Plaza","types":["C"],"notes":"","conference_url":"","group_notes":"\t            ","city":"Kansas City","country":"USA","location_notes":"(Unity Temple, after 6pm use S. door)","postal_code":64112,"address":"707 W. 47th ","day":1,"latitude":39.0420954,"conference_phone":""},{"location":"Unity Temple,","longitude":-94.5952951,"updated":"2021-05-26 19:03:46","state":"MO","time":"18:00","slug":6547,"append":" none","url":"http://district6.wamo-aa.org/meetinfo2.cfm?id=6547","name":"Unity On the Plaza","types":["C"],"notes":"","conference_url":"","group_notes":"\t            ","city":"Kansas City","country":"USA","location_notes":"(Unity Temple, after 6pm use S. door)","postal_code":64112,"address":"707 W. 47th ","day":1,"latitude":39.0420954,"conference_phone":""},{"location":"Unity Temple,","longitude":-94.5952951,"updated":"2021-05-26 19:03:46","state":"MO","time":"20:00","slug":6549,"append":" none","url":"http://district6.wamo-aa.org/meetinfo2.cfm?id=6549","name":"Unity On the Plaza","types":["C"],"notes":"","conference_url":"","group_notes":"\t            ","city":"Kansas City","country":"USA","location_notes":"(Unity Temple, after 6pm use S. door)","postal_code":64112,"address":"707 W. 47th ","day":1,"latitude":39.0420954,"conference_phone":""},{"location":"Unity Temple,","longitude":-94.5952951,"updated":"2021-05-26 19:03:46","state":"MO","time":"18:00","slug":6551,"append":" none","url":"http://district6.wamo-aa.org/meetinfo2.cfm?id=6551","name":"Unity On the Plaza","types":["C"],"notes":"","conference_url":"","group_notes":"\t            ","city":"Kansas City","country":"USA","location_notes":"(Unity Temple, after 6pm use S. door)","postal_code":64112,"address":"707 W. 47th ","day":2,"latitude":39.0420954,"conference_phone":""},{"location":"Unity Temple,","longitude":-94.5952951,"updated":"2021-05-26 19:03:46","state":"MO","time":"20:00","slug":6552,"append":" none","url":"http://district6.wamo-aa.org/meetinfo2.cfm?id=6552","name":"Unity On the Plaza","types":["C"],"notes":"","conference_url":"","group_notes":"\t            ","city":"Kansas City","country":"USA","location_notes":"(Unity Temple, after 6pm use S. door)","postal_code":64112,"address":"707 W. 47th ","day":2,"latitude":39.0420954,"conference_phone":""},{"location":"Unity Temple,","longitude":-94.5952951,"updated":"2021-05-26 19:03:46","state":"MO","time":"12:00","slug":6553,"append":" none","url":"http://district6.wamo-aa.org/meetinfo2.cfm?id=6553","name":"Unity On the Plaza","types":["C"],"notes":"","conference_url":"","group_notes":"\t            ","city":"Kansas City","country":"USA","location_notes":"(Unity Temple, after 6pm use S. door)","postal_code":64112,"address":"707 W. 47th ","day":3,"latitude":39.0420954,"conference_phone":""},{"location":"Unity Temple,","longitude":-94.5952951,"updated":"2021-05-26 19:03:46","state":"MO","time":"20:00","slug":6554,"append":" none","url":"http://district6.wamo-aa.org/meetinfo2.cfm?id=6554","name":"Unity On the Plaza","types":["C"],"notes":"","conference_url":"","group_notes":"\t            ","city":"Kansas City","country":"USA","location_notes":"(Unity Temple, after 6pm use S. door)","postal_code":64112,"address":"707 W. 47th ","day":3,"latitude":39.0420954,"conference_phone":""},{"location":"Unity Temple,","longitude":-94.5952951,"updated":"2021-05-26 19:03:46","state":"MO","time":"18:00","slug":6555,"append":" none","url":"http://district6.wamo-aa.org/meetinfo2.cfm?id=6555","name":"Unity On the Plaza","types":["C"],"notes":"","conference_url":"","group_notes":"\t            ","city":"Kansas City","country":"USA","location_notes":"(Unity Temple, after 6pm use S. door)","postal_code":64112,"address":"707 W. 47th ","day":3,"latitude":39.0420954,"conference_phone":""},{"location":"Linwood United Church","longitude":-94.5549478,"updated":"2021-05-26 19:03:46","state":"MO","time":"16:00","slug":6568,"append":" S","url":"http://district6.wamo-aa.org/meetinfo2.cfm?id=6568","name":"Paseo Group","types":["O","onl","ST"],"notes":"","conference_url":"https://us02web.zoom.us/j/5146433808?pwd=bwdUWeCHgaA","group_notes":"Masks Required\t\t            ","city":"Kansas City","country":"USA","location_notes":"Enter on Olive Street side of building","postal_code":64109,"address":"3151 Olive","day":0,"latitude":39.0684957,"conference_phone":""},{"location":"Unity Temple,","longitude":-94.5952951,"updated":"2021-05-26 19:03:46","state":"MO","time":"18:00","slug":6577,"append":"ASL    ","url":"http://district6.wamo-aa.org/meetinfo2.cfm?id=6577","name":"Unity On the Plaza","types":["O","onl"],"notes":"an American Sign Language (ASL) interpreter available at this meeting","conference_url":"https://us04web.zoom.us/j/6631029191?pwd=cnpPUFV3cTYrd29PRGNsMWRQUWlKQT09","group_notes":"\t            ","city":"Kansas City","country":"USA","location_notes":"(Unity Temple, after 6pm use S. door)","postal_code":64112,"address":"707 W. 47th ","day":6,"latitude":39.0420954,"conference_phone":"3126266799,,6631029191#,,#,,987776"},{"location":"Unity Temple,","longitude":-94.5952951,"updated":"2021-05-26 19:03:46","state":"MO","time":"18:00","slug":6557,"append":" none","url":"http://district6.wamo-aa.org/meetinfo2.cfm?id=6557","name":"Unity On the Plaza","types":["C"],"notes":"","conference_url":"","group_notes":"\t            ","city":"Kansas City","country":"USA","location_notes":"(Unity Temple, after 6pm use S. door)","postal_code":64112,"address":"707 W. 47th ","day":4,"latitude":39.0420954,"conference_phone":""},{"location":"Unity Temple,","longitude":-94.5952951,"updated":"2021-05-26 19:03:46","state":"MO","time":"20:00","slug":6558,"append":" none","url":"http://district6.wamo-aa.org/meetinfo2.cfm?id=6558","name":"Unity On the Plaza","types":["C"],"notes":"","conference_url":"","group_notes":"\t            ","city":"Kansas City","country":"USA","location_notes":"(Unity Temple, after 6pm use S. door)","postal_code":64112,"address":"707 W. 47th ","day":4,"latitude":39.0420954,"conference_phone":""},{"location":"Unity Temple,","longitude":-94.5952951,"updated":"2021-05-26 19:03:46","state":"MO","time":"12:00","slug":6559,"append":" none","url":"http://district6.wamo-aa.org/meetinfo2.cfm?id=6559","name":"Unity On the Plaza","types":["C"],"notes":"","conference_url":"","group_notes":"\t            ","city":"Kansas City","country":"USA","location_notes":"(Unity Temple, after 6pm use S. door)","postal_code":64112,"address":"707 W. 47th ","day":5,"latitude":39.0420954,"conference_phone":""},{"location":"Unity Temple,","longitude":-94.5952951,"updated":"2021-05-26 19:03:46","state":"MO","time":"18:00","slug":6560,"append":" none","url":"http://district6.wamo-aa.org/meetinfo2.cfm?id=6560","name":"Unity On the Plaza","types":["C"],"notes":"","conference_url":"","group_notes":"\t            ","city":"Kansas City","country":"USA","location_notes":"(Unity Temple, after 6pm use S. door)","postal_code":64112,"address":"707 W. 47th ","day":5,"latitude":39.0420954,"conference_phone":""},{"location":"Unity Temple,","longitude":-94.5952951,"updated":"2021-05-26 19:03:46","state":"MO","time":"20:00","slug":6561,"append":" none","url":"http://district6.wamo-aa.org/meetinfo2.cfm?id=6561","name":"Unity On the Plaza","types":["C"],"notes":"","conference_url":"","group_notes":"\t            ","city":"Kansas City","country":"USA","location_notes":"(Unity Temple, after 6pm use S. door)","postal_code":64112,"address":"707 W. 47th ","day":5,"latitude":39.0420954,"conference_phone":""},{"location":"Unity Temple,","longitude":-94.5952951,"updated":"2021-05-26 19:03:46","state":"MO","time":"08:00","slug":6562,"append":" none","url":"http://district6.wamo-aa.org/meetinfo2.cfm?id=6562","name":"Unity On the Plaza","types":["C"],"notes":"","conference_url":"","group_notes":"\t            ","city":"Kansas City","country":"USA","location_notes":"(Unity Temple, after 6pm use S. door)","postal_code":64112,"address":"707 W. 47th ","day":6,"latitude":39.0420954,"conference_phone":""},{"location":"Unity Temple,","longitude":-94.5952951,"updated":"2021-05-26 19:03:46","state":"MO","time":"11:00","slug":6563,"append":" none","url":"http://district6.wamo-aa.org/meetinfo2.cfm?id=6563","name":"Unity On the Plaza","types":["C"],"notes":"","conference_url":"","group_notes":"\t            ","city":"Kansas City","country":"USA","location_notes":"(Unity Temple, after 6pm use S. door)","postal_code":64112,"address":"707 W. 47th ","day":6,"latitude":39.0420954,"conference_phone":""},{"location":"Unity Temple,","longitude":-94.5952951,"updated":"2021-05-26 19:03:46","state":"MO","time":"20:00","slug":6564,"append":" none","url":"http://district6.wamo-aa.org/meetinfo2.cfm?id=6564","name":"Unity On the Plaza","types":["C"],"notes":"","conference_url":"","group_notes":"\t            ","city":"Kansas City","country":"USA","location_notes":"(Unity Temple, after 6pm use S. door)","postal_code":64112,"address":"707 W. 47th ","day":6,"latitude":39.0420954,"conference_phone":""},{"location":"Linwood United Church","longitude":-94.5549478,"updated":"2021-05-26 19:03:46","state":"MO","time":"12:00","slug":6565,"append":" GPV","url":"http://district6.wamo-aa.org/meetinfo2.cfm?id=6565","name":"Paseo Group","types":["C","onl"],"notes":"","conference_url":"https://us02web.zoom.us/j/5146433808?pwd=bwdUWeCHgaA","group_notes":"Masks Required\t\t            ","city":"Kansas City","country":"USA","location_notes":"Enter on Olive Street side of building","postal_code":64109,"address":"3151 Olive","day":6,"latitude":39.0684957,"conference_phone":""},{"location":"","longitude":-94.6045094,"updated":"2021-05-26 19:03:46","state":"MO","time":"08:30","slug":6578,"append":"M ST","url":"http://district6.wamo-aa.org/meetinfo2.cfm?id=6578","name":"Performance III (P3) (MEN ONLY)","types":["C","ST","TR"],"notes":"","conference_url":"https://us02web.zoom.us/j/410467826?pwd=bHZkOHhYTHdMZXJnVTdGMU9oK01DQT09","group_notes":"\t\t\t            ","city":"Kansas City","country":"USA","location_notes":"Little White Building Next to  Roanoke Baptist Church","postal_code":64111,"address":"1606 W. 40th ","day":0,"latitude":39.0554847,"conference_phone":"+13126266799,,410467826#,,,,*3333#"},{"location":"","longitude":-94.6045094,"updated":"2021-05-26 19:03:46","state":"MO","time":"12:00","slug":6579,"append":"    ","url":"http://district6.wamo-aa.org/meetinfo2.cfm?id=6579","name":"Performance III (P3) (MEN ONLY)","types":["C"],"notes":"","conference_url":"https://us02web.zoom.us/j/410467826?pwd=bHZkOHhYTHdMZXJnVTdGMU9oK01DQT09","group_notes":"\t\t\t            ","city":"Kansas City","country":"USA","location_notes":"Little White Building Next to  Roanoke Baptist Church","postal_code":64111,"address":"1606 W. 40th ","day":0,"latitude":39.0554847,"conference_phone":"+13126266799,,410467826#,,,,*3333#"},{"location":"","longitude":-94.6045094,"updated":"2021-05-26 19:03:46","state":"MO","time":"12:00","slug":6580,"append":"M LIT","url":"http://district6.wamo-aa.org/meetinfo2.cfm?id=6580","name":"Performance III (P3) (MEN ONLY)","types":["C"],"notes":"","conference_url":"https://us02web.zoom.us/j/5265264150?pwd=QUtYb0xEV0NHSFNSbjQyV3JCUDJUQT09","group_notes":"\t\t\t            ","city":"Kansas City","country":"USA","location_notes":"Little White Building Next to  Roanoke Baptist Church","postal_code":64111,"address":"1606 W. 40th ","day":1,"latitude":39.0554847,"conference_phone":"+13126266799,,410467826#,,,,*3333#"},{"location":"","longitude":-94.6045094,"updated":"2021-05-26 19:03:46","state":"MO","time":"19:00","slug":6581,"append":"M    ","url":"http://district6.wamo-aa.org/meetinfo2.cfm?id=6581","name":"Performance III (P3) (MEN ONLY)","types":["C"],"notes":"","conference_url":"https://us02web.zoom.us/j/410467826?pwd=bHZkOHhYTHdMZXJnVTdGMU9oK01DQT09","group_notes":"\t\t\t            ","city":"Kansas City","country":"USA","location_notes":"Little White Building Next to  Roanoke Baptist Church","postal_code":64111,"address":"1606 W. 40th ","day":1,"latitude":39.0554847,"conference_phone":"+13126266799,,410467826#,,,,*3333#"},{"location":"","longitude":-94.6045094,"updated":"2021-05-26 19:03:46","state":"MO","time":"12:00","slug":6582,"append":"M LIT","url":"http://district6.wamo-aa.org/meetinfo2.cfm?id=6582","name":"Performance III (P3) (MEN ONLY)","types":["C"],"notes":"","conference_url":"https://us02web.zoom.us/j/410467826?pwd=bHZkOHhYTHdMZXJnVTdGMU9oK01DQT09","group_notes":"\t\t\t            ","city":"Kansas City","country":"USA","location_notes":"Little White Building Next to  Roanoke Baptist Church","postal_code":64111,"address":"1606 W. 40th ","day":2,"latitude":39.0554847,"conference_phone":"+13126266799,,410467826#,,,,*3333#"},{"location":"","longitude":-94.6045094,"updated":"2021-05-26 19:03:46","state":"MO","time":"12:00","slug":6584,"append":"M LIT","url":"http://district6.wamo-aa.org/meetinfo2.cfm?id=6584","name":"Performance III (P3) (MEN ONLY)","types":["C"],"notes":"","conference_url":"https://us02web.zoom.us/j/410467826?pwd=bHZkOHhYTHdMZXJnVTdGMU9oK01DQT09","group_notes":"\t\t\t            ","city":"Kansas City","country":"USA","location_notes":"Little White Building Next to  Roanoke Baptist Church","postal_code":64111,"address":"1606 W. 40th ","day":3,"latitude":39.0554847,"conference_phone":"+13126266799,,410467826#,,,,*3333#"},{"location":"","longitude":-94.6045094,"updated":"2021-05-26 19:03:46","state":"MO","time":"12:00","slug":6585,"append":"M LIT","url":"http://district6.wamo-aa.org/meetinfo2.cfm?id=6585","name":"Performance III (P3) (MEN ONLY)","types":["C"],"notes":"","conference_url":"https://us02web.zoom.us/j/410467826?pwd=bHZkOHhYTHdMZXJnVTdGMU9oK01DQT09","group_notes":"\t\t\t            ","city":"Kansas City","country":"USA","location_notes":"Little White Building Next to  Roanoke Baptist Church","postal_code":64111,"address":"1606 W. 40th ","day":4,"latitude":39.0554847,"conference_phone":"+13126266799,,410467826#,,,,*3333#"},{"location":"","longitude":-94.6045094,"updated":"2021-05-26 19:03:46","state":"MO","time":"12:00","slug":6586,"append":"M LIT","url":"http://district6.wamo-aa.org/meetinfo2.cfm?id=6586","name":"Performance III (P3) (MEN ONLY)","types":["C"],"notes":"","conference_url":"https://us02web.zoom.us/j/410467826?pwd=bHZkOHhYTHdMZXJnVTdGMU9oK01DQT09","group_notes":"\t\t\t            ","city":"Kansas City","country":"USA","location_notes":"Little White Building Next to  Roanoke Baptist Church","postal_code":64111,"address":"1606 W. 40th ","day":5,"latitude":39.0554847,"conference_phone":"+13126266799,,410467826#,,,,*3333#"},{"location":"","longitude":-94.6045094,"updated":"2021-05-26 19:03:46","state":"MO","time":"12:00","slug":6587,"append":"M LIT","url":"http://district6.wamo-aa.org/meetinfo2.cfm?id=6587","name":"Performance III (P3) (MEN ONLY)","types":["C"],"notes":"","conference_url":"https://us02web.zoom.us/j/410467826?pwd=bHZkOHhYTHdMZXJnVTdGMU9oK01DQT09","group_notes":"\t\t\t            ","city":"Kansas City","country":"USA","location_notes":"Little White Building Next to  Roanoke Baptist Church","postal_code":64111,"address":"1606 W. 40th ","day":6,"latitude":39.0554847,"conference_phone":"+13126266799,,410467826#,,,,*3333#"},{"location":"","longitude":-94.5937629,"updated":"2021-05-26 19:03:46","state":"MO","time":"19:30","slug":6588,"append":"W none","url":"http://district6.wamo-aa.org/meetinfo2.cfm?id=6588","name":"Kansas City Group #1","types":["C","W","X"],"notes":"","conference_url":"","group_notes":"Hall is still open from 11:30am to 7:30 Tuesday & Thursdays <br> other days open at 9am - MASKS REQUIRED","city":"Kansas City","country":"USA","location_notes":"(3 doors off Wornall)","postal_code":64114,"address":"311 W. 80 Terrace ","day":3,"latitude":38.9820752,"conference_phone":""}] 